property_id,address,city,state,zip_code,price,beds,baths,sqft,property_type,year_built,school_rating,neighborhood,listing_status,days_on_market,auction_date,auction_start_price,hoa_fee,description,image_url,latitude,longitude
121da30a-f4f4-47c4-b962-2b71dd4e2295,2962 Stevens Village,Boston,MA,02122,889320,4,3.5,2245,Single Family,1929,3.1,Back Bay,active,83,,,0,"Beautiful single family in the heart of Back Bay, Boston. Private backyard and patio. Close to restaurants and shops. Top-rated school district. Recently updated kitchen and bathrooms.",https://picsum.photos/seed/a44b2ad5/800/600,42.319304,-71.066045
47d76734-d0f7-4012-b72c-a5698d2f0dd9,6666 Sanchez Views,New York,NY,10024,659598,1,1.0,757,Single Family,1962,3.4,SoHo,pending,80,,,0,Stunning 1-bedroom single family located in SoHo. Open floor plan with natural light. Close to restaurants and shops. Hardwood floors throughout. Private backyard and patio.,https://picsum.photos/seed/ff464bc8/800/600,40.687324,-74.037455
055407dc-444f-41f1-8017-4507b2bc884e,572 Brian Dam,New York,NY,10055,436720,3,4.0,1696,Condo,1973,6.1,Park Slope,pending,103,,,500,"Charming condo with 4.0 bathrooms in desirable Park Slope. Recently updated kitchen and bathrooms. Hardwood floors throughout. Close to restaurants and shops. Features 1,696 sqft of living space. Private backyard and patio.",https://picsum.photos/seed/8b155077/800/600,40.649052,-74.03005
d31156ee-6e40-41fc-850e-5c1dbb44ef36,4172 Suzanne Squares,Portland,OR,97265,375334,3,2.5,2499,Single Family,2012,8.9,Sellwood,active,86,,,0,Stunning 3-bedroom single family located in Sellwood. Close to restaurants and shops. Built in 2012. Open floor plan with natural light. Private backyard and patio.,https://picsum.photos/seed/651d995a/800/600,45.552848,-122.654752
1f8616c8-fb38-4931-a421-f3a3d1183fd2,6303 Nicholas Burg,Austin,TX,78780,546623,2,2.5,1733,Single Family,1941,3.9,Downtown Austin,sold,63,,,0,Stunning 2-bedroom single family located in Downtown Austin. Built in 1941. Hardwood floors throughout. Close to restaurants and shops.,https://picsum.photos/seed/3c18b6c5/800/600,30.222831,-97.741714
d28054b2-6285-43c3-b4e0-b93138c72e8b,5090 Watson Squares,Seattle,WA,98187,701078,4,4.5,2294,Multi-Family,2015,4.7,Capitol Hill,active,52,,,0,Charming multi-family with 4.5 bathrooms in desirable Capitol Hill. Hardwood floors throughout. Private backyard and patio. Close to restaurants and shops. Top-rated school district. Recently updated kitchen and bathrooms.,https://picsum.photos/seed/b1090aa8/800/600,47.506234,-122.413921
3dec5695-c084-4784-ab58-9ef587f0bada,9073 Elizabeth Cliffs,Nashville,TN,37247,541308,4,4.0,2954,Single Family,2011,7.8,Germantown,active,13,,,0,"Charming single family with 4.0 bathrooms in desirable Germantown. Built in 2011. Features 2,954 sqft of living space. Top-rated school district. Hardwood floors throughout.",https://picsum.photos/seed/f27aa09d/800/600,36.130971,-86.715623
18d089de-f0ad-41d1-8663-822d530274e8,9747 Monroe Ways,Chicago,IL,60696,357433,5,4.5,2706,Multi-Family,1947,4.0,Logan Square,active,92,,,0,"Beautiful multi-family in the heart of Logan Square, Chicago. Top-rated school district. Private backyard and patio. Open floor plan with natural light. Close to restaurants and shops.",https://picsum.photos/seed/c04b1ede/800/600,41.7874,-87.603152
e9d65662-7931-4b31-a6dd-2bcd32494d14,6447 Anthony Lakes,Chicago,IL,60623,320078,1,1.0,1120,Multi-Family,1981,9.2,Hyde Park,sold,118,,,0,Charming multi-family with 1.0 bathrooms in desirable Hyde Park. Private backyard and patio. Open floor plan with natural light. Hardwood floors throughout. Top-rated school district. Built in 1981.,https://picsum.photos/seed/837ece0b/800/600,41.81283,-87.566751
e0980fbf-d80d-4cdd-9644-92622d95482c,3660 Christian Club,Miami,FL,33180,956068,3,3.5,1674,Multi-Family,1972,7.7,Miami Beach,auction,114,2026-05-15,790153,0,"Beautiful multi-family in the heart of Miami Beach, Miami. Open floor plan with natural light. Private backyard and patio. Recently updated kitchen and bathrooms.",https://picsum.photos/seed/52cc12ed/800/600,25.724482,-80.144436
a6361b06-9a0c-4bd4-8bc9-5b91e5674122,8664 Ashley Via,Chicago,IL,60611,250958,3,3.5,1757,Condo,1991,9.5,Logan Square,auction,74,2026-05-28,191386,350,"Beautiful condo in the heart of Logan Square, Chicago. Close to restaurants and shops. Built in 1991. Features 1,757 sqft of living space.",https://picsum.photos/seed/fb0d84d7/800/600,41.953595,-87.645323
515670fe-f1c3-4f13-8f8a-e3f358732bad,9305 Hernandez Falls,Austin,TX,78796,267222,1,1.5,802,Condo,1927,5.9,East Austin,active,97,,,400,"Beautiful condo in the heart of East Austin, Austin. Close to restaurants and shops. Built in 1927. Open floor plan with natural light. Recently updated kitchen and bathrooms. Features 802 sqft of living space.",https://picsum.photos/seed/1a217e2e/800/600,30.330005,-97.822604
4d2c51bf-29ac-4cba-9fa5-da9222167a81,6125 Manning Summit,New York,NY,10091,1141744,3,4.5,1487,Multi-Family,2015,8.8,SoHo,active,80,,,0,Charming multi-family with 4.5 bathrooms in desirable SoHo. Hardwood floors throughout. Close to restaurants and shops. Private backyard and patio. Built in 2015. Recently updated kitchen and bathrooms.,https://picsum.photos/seed/5bf98215/800/600,40.701413,-74.06089
bce61c7d-7445-49d9-9d71-0947e1d416b2,192 Harrison Stravenue,Portland,OR,97242,483197,1,1.0,951,Condo,1935,3.5,Division,active,55,,,350,Stunning 1-bedroom condo located in Division. Recently updated kitchen and bathrooms. Features 951 sqft of living space. Built in 1935. Top-rated school district.,https://picsum.photos/seed/d5d422c2/800/600,45.441213,-122.661603
6fe734e8-0b94-4c29-b592-d3669686cf3a,2711 Wallace Rue,Seattle,WA,98174,923250,5,7.0,3221,Single Family,2021,1.7,West Seattle,auction,46,2026-05-28,690294,0,"Stunning 5-bedroom single family located in West Seattle. Close to restaurants and shops. Features 3,221 sqft of living space. Recently updated kitchen and bathrooms. Built in 2021. Open floor plan with natural light.",https://picsum.photos/seed/128783dc/800/600,47.542974,-122.418465
d4f36abd-6fd2-4f4e-80a8-aee7d2f6311b,4094 Justin Drives,Nashville,TN,37289,316364,2,3.0,1785,Townhouse,1991,4.1,The Gulch,active,86,,,300,"Beautiful townhouse in the heart of The Gulch, Nashville. Private backyard and patio. Hardwood floors throughout. Features 1,785 sqft of living space. Close to restaurants and shops. Recently updated kitchen and bathrooms.",https://picsum.photos/seed/a9e3eb28/800/600,36.243599,-86.75886
427eaa41-a25e-49ce-b9bf-09503e41abd9,2842 Nicole Bypass,San Francisco,CA,94122,633392,5,7.0,3418,Townhouse,2022,1.4,Marina,pending,63,,,300,"Charming townhouse with 7.0 bathrooms in desirable Marina. Features 3,418 sqft of living space. Private backyard and patio. Top-rated school district. Built in 2022. Open floor plan with natural light.",https://picsum.photos/seed/48d9143b/800/600,37.738963,-122.502931
40792687-64c3-40b3-a1bd-03d1588c2a21,3829 Wesley Branch,New York,NY,10083,734794,4,5.0,2022,Single Family,1923,1.3,Astoria,sold,43,,,75,Stunning 4-bedroom single family located in Astoria. Close to restaurants and shops. Hardwood floors throughout. Private backyard and patio. Top-rated school district.,https://picsum.photos/seed/4e086114/800/600,40.771643,-73.994383
82e35753-45ac-4b2f-8639-ce56f5ee08f9,1583 Sullivan Hills,Boston,MA,02117,668782,5,5.5,3669,Multi-Family,1976,1.6,South End,active,52,,,150,"Beautiful multi-family in the heart of South End, Boston. Features 3,669 sqft of living space. Close to restaurants and shops. Built in 1976.",https://picsum.photos/seed/d7cdbe5f/800/600,42.325582,-71.029902
fb56e2f6-8dee-49c2-96db-5c29be83e40a,4712 Wall Springs,New York,NY,10021,485188,1,1.0,931,Townhouse,1925,5.5,Upper West Side,active,119,,,350,Stunning 1-bedroom townhouse located in Upper West Side. Close to restaurants and shops. Top-rated school district. Private backyard and patio. Features 931 sqft of living space.,https://picsum.photos/seed/12643729/800/600,40.770178,-74.04573
fc6cc7fc-d644-420c-8df8-16ea99a83696,2416 Spencer Village,Portland,OR,97281,366201,1,1.5,1030,Condo,2001,9.0,Alberta Arts,active,87,,,400,"Beautiful condo in the heart of Alberta Arts, Portland. Features 1,030 sqft of living space. Open floor plan with natural light. Close to restaurants and shops.",https://picsum.photos/seed/331fd950/800/600,45.606678,-122.77617
4c680fca-2155-4c76-a6bc-eaedae9ef0c4,9092 Ellison Parkway,New York,NY,10016,802189,3,3.0,2258,Single Family,1940,8.5,Brooklyn Heights,active,79,,,75,"Stunning 3-bedroom single family located in Brooklyn Heights. Built in 1940. Recently updated kitchen and bathrooms. Private backyard and patio. Features 2,258 sqft of living space. Close to restaurants and shops.",https://picsum.photos/seed/2e028216/800/600,40.746996,-73.992541
6e56fe4b-aad2-41d6-9f8b-45a56e284963,5108 Fletcher Manors,Boston,MA,02188,540999,2,3.0,1429,Condo,2005,6.6,South End,active,37,,,300,Charming condo with 3.0 bathrooms in desirable South End. Recently updated kitchen and bathrooms. Open floor plan with natural light. Close to restaurants and shops. Top-rated school district. Private backyard and patio.,https://picsum.photos/seed/66f0a42c/800/600,42.323657,-71.068771
1293058c-c42f-4d58-a584-ff5ff75adf91,2979 Joseph Course,New York,NY,10023,388885,1,1.5,964,Condo,1966,4.0,Brooklyn Heights,auction,94,2026-05-21,299218,400,Charming condo with 1.5 bathrooms in desirable Brooklyn Heights. Built in 1966. Close to restaurants and shops. Recently updated kitchen and bathrooms. Top-rated school district. Open floor plan with natural light.,https://picsum.photos/seed/e2a912d1/800/600,40.767753,-74.008606
e7e1c70d-470b-43e9-ae52-8eab006a3d36,2535 Spence Crossroad,Miami,FL,33170,640970,1,1.5,912,Single Family,1994,2.9,Coconut Grove,sold,76,,,100,Stunning 1-bedroom single family located in Coconut Grove. Hardwood floors throughout. Close to restaurants and shops. Open floor plan with natural light. Recently updated kitchen and bathrooms.,https://picsum.photos/seed/31d0b617/800/600,25.770394,-80.092054
5bc139b5-cc55-4a71-8f49-0cc2f076f41f,762 Richard Centers,Chicago,IL,60655,500908,1,1.0,862,Multi-Family,2004,2.5,Wicker Park,auction,88,2026-05-22,361182,75,"Beautiful multi-family in the heart of Wicker Park, Chicago. Hardwood floors throughout. Features 862 sqft of living space. Recently updated kitchen and bathrooms. Private backyard and patio.",https://picsum.photos/seed/f24c2116/800/600,41.925284,-87.633099
e0391185-750d-45f4-9587-4971c1da4acd,4414 Philip View,Denver,CO,80245,679177,5,7.0,3318,Single Family,1980,9.8,RiNo,active,6,,,0,Charming single family with 7.0 bathrooms in desirable RiNo. Recently updated kitchen and bathrooms. Hardwood floors throughout. Private backyard and patio. Close to restaurants and shops. Top-rated school district.,https://picsum.photos/seed/89174f46/800/600,39.779947,-104.986025
433ae136-8883-487d-8ad4-3fbb6ad979b1,2813 Lisa Mountain,Seattle,WA,98166,779331,4,6.0,2520,Single Family,1971,8.1,Fremont,active,63,,,0,"Beautiful single family in the heart of Fremont, Seattle. Open floor plan with natural light. Built in 1971. Close to restaurants and shops.",https://picsum.photos/seed/edfe698e/800/600,47.50752,-122.255693
7a35c922-ef7d-49f9-bdc4-b6736120c3c5,6832 Edwards Row,Chicago,IL,60692,225174,3,4.0,1963,Condo,2023,5.3,Lakeview,sold,15,,,500,"Beautiful condo in the heart of Lakeview, Chicago. Features 1,963 sqft of living space. Built in 2023. Open floor plan with natural light.",https://picsum.photos/seed/be9d4f96/800/600,41.873904,-87.611642
e97605e0-9b16-4adb-a824-d358bc13b478,4744 Wilcox Expressway,Seattle,WA,98112,367539,3,2.5,2354,Condo,1927,2.6,Ballard,active,119,,,450,"Beautiful condo in the heart of Ballard, Seattle. Top-rated school district. Open floor plan with natural light. Hardwood floors throughout.",https://picsum.photos/seed/76c7ae1f/800/600,47.626072,-122.319379
584939bf-78a2-4a3f-89b7-ac1bcfec2277,3865 Linda Rue,Portland,OR,97218,284534,2,2.5,1689,Condo,1999,7.5,Sellwood,active,22,,,400,"Stunning 2-bedroom condo located in Sellwood. Recently updated kitchen and bathrooms. Features 1,689 sqft of living space. Close to restaurants and shops. Built in 1999.",https://picsum.photos/seed/8be5284b/800/600,45.59967,-122.659093
4f61e4c7-7a90-43b9-a5a6-bd14f620efd7,7169 Lee Coves,San Francisco,CA,94110,1946532,5,4.5,3434,Multi-Family,2020,2.1,Marina,pending,97,,,0,"Charming multi-family with 4.5 bathrooms in desirable Marina. Private backyard and patio. Close to restaurants and shops. Features 3,434 sqft of living space. Open floor plan with natural light.",https://picsum.photos/seed/322e1b1f/800/600,37.700966,-122.398705
83510b74-c224-4ed6-921d-b57c5535a263,4741 Christian Rapids,New York,NY,10020,801532,2,2.5,1569,Condo,1995,2.2,Park Slope,active,55,,,500,"Charming condo with 2.5 bathrooms in desirable Park Slope. Close to restaurants and shops. Recently updated kitchen and bathrooms. Built in 1995. Features 1,569 sqft of living space. Open floor plan with natural light.",https://picsum.photos/seed/49d15bdb/800/600,40.765972,-73.923983
cad9dcdd-766e-4a63-afd7-28413bb0f124,4614 Johnson Haven,Seattle,WA,98156,781066,4,5.0,2653,Single Family,1966,6.9,Capitol Hill,active,55,,,0,Charming single family with 5.0 bathrooms in desirable Capitol Hill. Hardwood floors throughout. Top-rated school district. Open floor plan with natural light. Private backyard and patio.,https://picsum.photos/seed/b7d50eb9/800/600,47.677195,-122.347388
ce2fd5a2-b987-4283-aaf4-828733588a20,2750 Amber Circles,Portland,OR,97299,323755,3,3.5,2166,Condo,1964,8.7,Division,sold,18,,,200,"Beautiful condo in the heart of Division, Portland. Close to restaurants and shops. Top-rated school district. Recently updated kitchen and bathrooms.",https://picsum.photos/seed/087d83ab/800/600,45.564763,-122.689081
69666c67-4390-4cca-84ee-0328877aed34,8636 Carla Throughway,San Francisco,CA,94161,911449,1,1.5,915,Single Family,1996,3.4,Noe Valley,active,9,,,0,Stunning 1-bedroom single family located in Noe Valley. Features 915 sqft of living space. Close to restaurants and shops. Built in 1996. Hardwood floors throughout. Open floor plan with natural light.,https://picsum.photos/seed/739a9471/800/600,37.796706,-122.374501
70f9bac9-6c2f-482e-a1c0-cfba4276b50d,6644 Lopez Flats,Austin,TX,78745,403782,3,3.0,1712,Condo,1986,7.1,South Lamar,auction,22,2026-05-17,297138,150,"Stunning 3-bedroom condo located in South Lamar. Close to restaurants and shops. Hardwood floors throughout. Open floor plan with natural light. Built in 1986. Features 1,712 sqft of living space.",https://picsum.photos/seed/54bf0a93/800/600,30.362329,-97.825731
0705a27c-e15c-4dc7-8868-28cb4d60cdbe,6770 John Corner,Boston,MA,02132,740788,5,7.0,3267,Single Family,2024,9.7,Cambridge,active,78,,,0,Charming single family with 7.0 bathrooms in desirable Cambridge. Built in 2024. Open floor plan with natural light. Recently updated kitchen and bathrooms.,https://picsum.photos/seed/7d838014/800/600,42.340891,-71.15797
982faa95-e8c6-4840-bfb7-78f89786a5d1,7648 Anne Turnpike,Nashville,TN,37297,536941,3,4.0,2410,Single Family,2008,5.4,Germantown,active,73,,,0,"Charming single family with 4.0 bathrooms in desirable Germantown. Top-rated school district. Features 2,410 sqft of living space. Recently updated kitchen and bathrooms.",https://picsum.photos/seed/aaa19f68/800/600,36.130632,-86.72648
49289465-b700-414e-8af0-bf639f1c4fae,1345 Williams Island,Boston,MA,02153,1019855,2,2.5,1395,Multi-Family,1972,1.1,Cambridge,auction,69,2026-06-01,754185,0,Charming multi-family with 2.5 bathrooms in desirable Cambridge. Top-rated school district. Recently updated kitchen and bathrooms. Close to restaurants and shops.,https://picsum.photos/seed/939c95ce/800/600,42.339886,-71.009142
433ce648-3108-4dbb-be20-862c4caf7b6e,2064 Sherry Branch,Denver,CO,80223,372340,2,2.5,1324,Townhouse,2014,3.1,Capitol Hill,active,27,,,300,"Beautiful townhouse in the heart of Capitol Hill, Denver. Top-rated school district. Open floor plan with natural light. Features 1,324 sqft of living space. Close to restaurants and shops. Private backyard and patio.",https://picsum.photos/seed/16acce5e/800/600,39.806467,-105.019095
f8b274fb-182f-4312-8ffd-85c483f1e8f8,8713 Walton Locks,Portland,OR,97216,478613,4,5.5,3116,Townhouse,1982,5.6,Alberta Arts,sold,118,,,450,"Stunning 4-bedroom townhouse located in Alberta Arts. Features 3,116 sqft of living space. Open floor plan with natural light. Recently updated kitchen and bathrooms. Hardwood floors throughout.",https://picsum.photos/seed/41b0d0cd/800/600,45.459619,-122.663067
3d169bdf-1e87-458e-9648-58ff0e36ba08,3985 Leonard Lock,Chicago,IL,60643,673948,5,5.5,2226,Multi-Family,2006,1.9,Wicker Park,active,75,,,0,Stunning 5-bedroom multi-family located in Wicker Park. Private backyard and patio. Recently updated kitchen and bathrooms. Built in 2006. Hardwood floors throughout.,https://picsum.photos/seed/7bab3d61/800/600,41.950468,-87.69237
1ba62871-8131-449d-8b75-ef568942d2e2,7181 Dickson Squares,New York,NY,10081,571989,2,2.0,1553,Condo,1977,9.8,Brooklyn Heights,auction,17,2026-05-27,420002,200,Stunning 2-bedroom condo located in Brooklyn Heights. Recently updated kitchen and bathrooms. Close to restaurants and shops. Private backyard and patio.,https://picsum.photos/seed/bda51ad8/800/600,40.756963,-73.945182
e5f90d4b-aeee-4158-b473-985d97e67b08,1083 Mark Streets,Chicago,IL,60630,611763,2,2.0,1400,Multi-Family,1988,3.3,Lakeview,pending,39,,,0,"Beautiful multi-family in the heart of Lakeview, Chicago. Top-rated school district. Close to restaurants and shops. Private backyard and patio. Features 1,400 sqft of living space.",https://picsum.photos/seed/f0572b44/800/600,41.787642,-87.710005
ad279372-2057-4235-ad99-ed0cce887387,2959 Wayne Trail,Portland,OR,97278,363126,3,3.5,1969,Townhouse,1922,8.8,Division,active,45,,,300,Stunning 3-bedroom townhouse located in Division. Private backyard and patio. Top-rated school district. Open floor plan with natural light. Hardwood floors throughout.,https://picsum.photos/seed/90704d48/800/600,45.530571,-122.648427
efaff320-a01a-44c2-9adb-a2b8c96e99e1,3839 Andrew Underpass,Portland,OR,97253,502428,3,3.5,1707,Single Family,2001,6.5,Hawthorne,pending,81,,,0,Stunning 3-bedroom single family located in Hawthorne. Open floor plan with natural light. Private backyard and patio. Recently updated kitchen and bathrooms. Top-rated school district.,https://picsum.photos/seed/bcb01afb/800/600,45.596615,-122.762578
b4193915-683f-4e06-a61c-351ba4b19bbc,1411 Woods Ways,New York,NY,10099,958904,3,4.0,2428,Townhouse,1972,1.2,Brooklyn Heights,active,110,,,300,"Beautiful townhouse in the heart of Brooklyn Heights, New York. Close to restaurants and shops. Features 2,428 sqft of living space. Top-rated school district.",https://picsum.photos/seed/3df76499/800/600,40.745205,-73.917913
a1778502-21f3-45a0-bf4e-638f3304b0a8,2171 Kelly Drive,Boston,MA,02190,962241,1,1.5,910,Multi-Family,1933,1.8,Cambridge,auction,20,2026-06-04,801374,0,"Beautiful multi-family in the heart of Cambridge, Boston. Recently updated kitchen and bathrooms. Features 910 sqft of living space. Close to restaurants and shops. Top-rated school district. Open floor plan with natural light.",https://picsum.photos/seed/3216429e/800/600,42.309579,-71.102065
b50bc2ea-f6c7-414e-9d57-bc74a6316311,8845 Miller Road,Portland,OR,97277,961990,5,7.5,3827,Multi-Family,1937,6.4,Sellwood,active,76,,,0,"Stunning 5-bedroom multi-family located in Sellwood. Top-rated school district. Open floor plan with natural light. Built in 1937. Features 3,827 sqft of living space.",https://picsum.photos/seed/6e9ece85/800/600,45.54237,-122.665603
2e17ccab-8cd0-4cdf-9f37-876cb80e37af,5008 Stephanie Fort,Portland,OR,97271,397050,3,2.5,1415,Townhouse,1986,5.2,Alberta Arts,active,37,,,150,"Beautiful townhouse in the heart of Alberta Arts, Portland. Open floor plan with natural light. Top-rated school district. Built in 1986. Features 1,415 sqft of living space.",https://picsum.photos/seed/f2b26fad/800/600,45.552754,-122.680014
8784ca1a-22f0-4248-a6d9-6c0712d2b14a,4554 Lindsey Shoal,San Francisco,CA,94188,748753,5,5.5,2918,Townhouse,2011,3.4,Noe Valley,active,29,,,450,"Stunning 5-bedroom townhouse located in Noe Valley. Open floor plan with natural light. Hardwood floors throughout. Built in 2011. Features 2,918 sqft of living space. Private backyard and patio.",https://picsum.photos/seed/efc1515e/800/600,37.799965,-122.416078
9eb144be-3576-4d64-bf72-941be4a32cb6,2148 Kayla Estates,Chicago,IL,60644,220719,4,5.0,2607,Townhouse,1944,1.4,Lakeview,active,20,,,150,"Charming townhouse with 5.0 bathrooms in desirable Lakeview. Features 2,607 sqft of living space. Built in 1944. Top-rated school district. Close to restaurants and shops.",https://picsum.photos/seed/bd8e571e/800/600,41.815288,-87.709345
a23bbdc4-1964-4076-8315-9313575a2214,8999 West Curve,Austin,TX,78719,511144,4,4.0,3010,Multi-Family,1979,8.6,Downtown Austin,active,11,,,0,Stunning 4-bedroom multi-family located in Downtown Austin. Hardwood floors throughout. Close to restaurants and shops. Recently updated kitchen and bathrooms.,https://picsum.photos/seed/d169fb4a/800/600,30.178408,-97.687969
a380a48b-373a-4b61-a293-f2f7554983d6,5393 Carter Road,New York,NY,10049,677933,2,2.0,1578,Single Family,2014,7.6,Upper West Side,active,59,,,75,"Beautiful single family in the heart of Upper West Side, New York. Features 1,578 sqft of living space. Private backyard and patio. Open floor plan with natural light. Close to restaurants and shops. Top-rated school district.",https://picsum.photos/seed/b28920ce/800/600,40.707365,-73.969712
bead4817-f3c2-4395-8061-a343c7db10ee,9620 Williams Station,Miami,FL,33115,787030,2,2.0,1163,Multi-Family,1934,3.9,Wynwood,auction,56,2026-05-11,644702,0,"Charming multi-family with 2.0 bathrooms in desirable Wynwood. Recently updated kitchen and bathrooms. Top-rated school district. Features 1,163 sqft of living space. Built in 1934.",https://picsum.photos/seed/a3452733/800/600,25.740862,-80.243182
e351c9ba-47a3-4e46-a385-4efacbee0598,7287 Allen Ridge,Chicago,IL,60654,351770,5,5.0,2380,Multi-Family,1965,8.1,Wicker Park,auction,69,2026-05-10,271980,0,"Charming multi-family with 5.0 bathrooms in desirable Wicker Park. Features 2,380 sqft of living space. Private backyard and patio. Hardwood floors throughout.",https://picsum.photos/seed/a5cb2023/800/600,41.88977,-87.600871
a60ffe3d-3af1-4568-ab8e-b0c62d73d6a4,9185 Susan Port,Nashville,TN,37286,234144,1,1.0,1110,Condo,1957,2.7,Hillsboro Village,auction,63,2026-05-11,182993,400,"Beautiful condo in the heart of Hillsboro Village, Nashville. Recently updated kitchen and bathrooms. Hardwood floors throughout. Top-rated school district.",https://picsum.photos/seed/2feb3a66/800/600,36.20918,-86.826535
46e37c83-1b60-4fbb-a51c-90bc7d1da7a5,3210 Davis Bridge,Miami,FL,33159,425305,5,5.5,2679,Townhouse,1999,3.1,Coral Gables,sold,80,,,200,Charming townhouse with 5.5 bathrooms in desirable Coral Gables. Top-rated school district. Close to restaurants and shops. Open floor plan with natural light. Built in 1999. Recently updated kitchen and bathrooms.,https://picsum.photos/seed/be825187/800/600,25.793358,-80.184009
c0be717b-2bab-424c-9db0-8d8389b39a51,8126 Katie Inlet,Nashville,TN,37294,630616,1,1.0,656,Multi-Family,1936,2.0,East Nashville,active,26,,,50,Charming multi-family with 1.0 bathrooms in desirable East Nashville. Open floor plan with natural light. Features 656 sqft of living space. Recently updated kitchen and bathrooms. Built in 1936. Close to restaurants and shops.,https://picsum.photos/seed/51779724/800/600,36.176902,-86.71434
c54dd2c2-b7fb-4e8e-a55e-83a7483bb130,1376 Victor Motorway,Austin,TX,78748,358195,1,1.0,815,Condo,1991,7.4,Mueller,active,102,,,350,"Beautiful condo in the heart of Mueller, Austin. Built in 1991. Features 815 sqft of living space. Private backyard and patio. Top-rated school district. Hardwood floors throughout.",https://picsum.photos/seed/65fe97f1/800/600,30.273004,-97.69624
ad851a04-6d0b-4cee-a52c-f53a2020c88e,1805 Jackson Hill,Denver,CO,80264,400740,1,1.0,976,Condo,2015,1.9,Highlands,pending,96,,,400,"Beautiful condo in the heart of Highlands, Denver. Close to restaurants and shops. Open floor plan with natural light. Recently updated kitchen and bathrooms.",https://picsum.photos/seed/057cef34/800/600,39.774099,-104.94979
1bed405b-84e5-4343-8cdc-6f3cff5c6c2a,5998 Carlos Ports,Chicago,IL,60642,658301,3,3.5,2088,Multi-Family,1972,6.5,Logan Square,sold,42,,,0,"Stunning 3-bedroom multi-family located in Logan Square. Close to restaurants and shops. Features 2,088 sqft of living space. Private backyard and patio. Top-rated school district.",https://picsum.photos/seed/4e63dc48/800/600,41.820886,-87.576658
932e65d4-9230-4dca-84d1-d94585c08586,9465 Gomez Cliffs,Miami,FL,33183,557043,3,2.5,1848,Single Family,1960,9.5,Brickell,sold,106,,,0,"Beautiful single family in the heart of Brickell, Miami. Features 1,848 sqft of living space. Hardwood floors throughout. Recently updated kitchen and bathrooms.",https://picsum.photos/seed/7004e2d2/800/600,25.845522,-80.189546
9722dc12-950c-4832-bc8d-ed211d7da416,8099 Jennifer Mount,Chicago,IL,60632,207477,3,3.0,1946,Condo,1931,9.3,Hyde Park,pending,73,,,200,"Charming condo with 3.0 bathrooms in desirable Hyde Park. Built in 1931. Open floor plan with natural light. Private backyard and patio. Recently updated kitchen and bathrooms. Features 1,946 sqft of living space.",https://picsum.photos/seed/7e2ffa6b/800/600,41.922816,-87.571219
cdd0c8ac-98e2-4257-b70f-9a260f7df9c2,287 Andersen Glens,Seattle,WA,98187,694131,1,1.5,949,Multi-Family,2024,8.8,Queen Anne,pending,120,,,0,Charming multi-family with 1.5 bathrooms in desirable Queen Anne. Close to restaurants and shops. Features 949 sqft of living space. Recently updated kitchen and bathrooms. Open floor plan with natural light. Top-rated school district.,https://picsum.photos/seed/3d864235/800/600,47.551544,-122.301544
a2db8f17-8d80-4ae6-99b9-8f561b06c258,9462 Santos Dam,Nashville,TN,37270,249980,3,3.0,1676,Condo,1977,1.8,Hillsboro Village,auction,65,2026-05-19,185851,450,"Charming condo with 3.0 bathrooms in desirable Hillsboro Village. Close to restaurants and shops. Recently updated kitchen and bathrooms. Features 1,676 sqft of living space.",https://picsum.photos/seed/23e813d2/800/600,36.092302,-86.814366
e24debee-c4af-4494-a2d6-cb1aa313ffa8,1273 Teresa Oval,New York,NY,10041,1457561,2,2.5,1778,Multi-Family,1945,6.1,Astoria,pending,84,,,0,"Stunning 2-bedroom multi-family located in Astoria. Private backyard and patio. Top-rated school district. Open floor plan with natural light. Features 1,778 sqft of living space.",https://picsum.photos/seed/65f3e64c/800/600,40.812216,-74.00115
c99a8649-f426-4662-8b17-7e1352a80636,3925 Michael Heights,Boston,MA,02115,877813,3,3.0,1940,Multi-Family,2018,6.5,Cambridge,active,45,,,0,"Beautiful multi-family in the heart of Cambridge, Boston. Private backyard and patio. Built in 2018. Top-rated school district. Features 1,940 sqft of living space. Open floor plan with natural light.",https://picsum.photos/seed/391a6b1b/800/600,42.348542,-71.129736
1047c456-2e13-4b2d-ad27-b5395517784a,9052 Ortiz River,Austin,TX,78736,426802,1,1.5,754,Condo,1963,5.2,Downtown Austin,active,58,,,400,Charming condo with 1.5 bathrooms in desirable Downtown Austin. Top-rated school district. Open floor plan with natural light. Private backyard and patio. Built in 1963.,https://picsum.photos/seed/3281fb46/800/600,30.209002,-97.735499
5beaf244-2392-4042-af83-802f5848d2b7,6001 Scott Passage,Austin,TX,78794,682346,5,4.0,2665,Multi-Family,1956,3.4,South Lamar,auction,80,2026-05-20,544657,150,"Beautiful multi-family in the heart of South Lamar, Austin. Open floor plan with natural light. Close to restaurants and shops. Private backyard and patio.",https://picsum.photos/seed/cf6c7d9d/800/600,30.299275,-97.710504
c0e5191e-d340-4373-82ea-2b48d0dd6f1e,5565 Brooks Springs,New York,NY,10049,819818,3,4.5,1711,Condo,1982,2.7,Park Slope,auction,12,2026-05-22,692761,150,"Stunning 3-bedroom condo located in Park Slope. Recently updated kitchen and bathrooms. Features 1,711 sqft of living space. Top-rated school district. Private backyard and patio.",https://picsum.photos/seed/95470201/800/600,40.62075,-73.921546
342b23a0-ebb1-4e61-a9ba-615558f92313,3826 Hunter Greens,Nashville,TN,37296,284468,5,5.0,2486,Townhouse,1969,3.0,The Gulch,auction,36,2026-05-16,237410,250,Stunning 5-bedroom townhouse located in The Gulch. Recently updated kitchen and bathrooms. Hardwood floors throughout. Top-rated school district.,https://picsum.photos/seed/108b8e20/800/600,36.080259,-86.805159
c94f566a-2dbc-4d00-a4b1-cf986466954b,9354 Christine Row,Seattle,WA,98128,593227,2,2.0,1437,Townhouse,1989,7.2,Ballard,active,40,,,250,"Beautiful townhouse in the heart of Ballard, Seattle. Built in 1989. Open floor plan with natural light. Close to restaurants and shops. Features 1,437 sqft of living space.",https://picsum.photos/seed/e7454df4/800/600,47.592213,-122.2503
a74463e4-bc4c-4a1c-affc-613ffa2355ee,3126 Joyce Gardens,Chicago,IL,60626,384053,2,2.5,1537,Townhouse,1972,9.4,Lakeview,pending,96,,,350,"Beautiful townhouse in the heart of Lakeview, Chicago. Open floor plan with natural light. Top-rated school district. Close to restaurants and shops. Private backyard and patio. Built in 1972.",https://picsum.photos/seed/faddf177/800/600,41.808491,-87.692213
8306d708-7828-4820-910b-17281a805782,2783 Eric Cove,Seattle,WA,98127,402552,1,1.0,912,Condo,1984,6.8,West Seattle,pending,92,,,250,"Beautiful condo in the heart of West Seattle, Seattle. Features 912 sqft of living space. Hardwood floors throughout. Top-rated school district.",https://picsum.photos/seed/3065fe52/800/600,47.676626,-122.333811
25c26fe3-f9a0-48cb-897b-14c767d19a7f,6332 Bennett Port,Miami,FL,33115,570728,2,2.5,1156,Multi-Family,1976,3.9,Miami Beach,pending,89,,,0,Charming multi-family with 2.5 bathrooms in desirable Miami Beach. Close to restaurants and shops. Open floor plan with natural light. Private backyard and patio. Top-rated school district.,https://picsum.photos/seed/32f152bf/800/600,25.711057,-80.210827
41320697-d9b4-4431-a54c-eb82cf14e207,4870 Nash Fork,Seattle,WA,98134,781563,4,4.5,2009,Single Family,1986,1.4,West Seattle,pending,95,,,0,Stunning 4-bedroom single family located in West Seattle. Open floor plan with natural light. Close to restaurants and shops. Recently updated kitchen and bathrooms. Hardwood floors throughout.,https://picsum.photos/seed/8e0ee1df/800/600,47.659232,-122.239582
1fd404d2-0ba6-41d4-802e-720be7f68267,3030 Sawyer Skyway,Chicago,IL,60613,425668,1,1.5,909,Multi-Family,2002,5.5,Logan Square,active,93,,,75,Stunning 1-bedroom multi-family located in Logan Square. Hardwood floors throughout. Top-rated school district. Features 909 sqft of living space. Recently updated kitchen and bathrooms. Open floor plan with natural light.,https://picsum.photos/seed/03b2985e/800/600,41.856713,-87.665108
171497f8-6e08-4c2e-93bc-81030a565729,2899 Michael Mountain,Chicago,IL,60615,270533,4,5.0,2240,Single Family,2010,9.8,Logan Square,sold,102,,,0,"Stunning 4-bedroom single family located in Logan Square. Recently updated kitchen and bathrooms. Built in 2010. Close to restaurants and shops. Private backyard and patio. Features 2,240 sqft of living space.",https://picsum.photos/seed/291d82e0/800/600,41.81008,-87.619731
cf4a6f0b-4b5e-4d7c-9d23-f57ca6ab1537,194 Rodriguez Falls,New York,NY,10079,644377,4,4.0,2228,Townhouse,1936,7.9,Brooklyn Heights,active,80,,,150,Charming townhouse with 4.0 bathrooms in desirable Brooklyn Heights. Hardwood floors throughout. Built in 1936. Open floor plan with natural light. Top-rated school district.,https://picsum.photos/seed/f051bff5/800/600,40.704529,-73.934918
23e1ded2-37ab-4aa0-99df-b94b97b8034f,9571 Samantha Locks,Portland,OR,97295,684775,5,6.0,3105,Multi-Family,1955,8.4,Sellwood,auction,72,2026-05-12,484367,100,"Charming multi-family with 6.0 bathrooms in desirable Sellwood. Private backyard and patio. Features 3,105 sqft of living space. Close to restaurants and shops. Top-rated school district.",https://picsum.photos/seed/c7a70de3/800/600,45.422544,-122.607634
e46913f8-ab45-439a-802c-05f0862362b4,6308 Gonzalez Isle,New York,NY,10057,458060,2,2.5,1873,Condo,1942,4.2,Astoria,sold,75,,,150,"Beautiful condo in the heart of Astoria, New York. Built in 1942. Recently updated kitchen and bathrooms. Hardwood floors throughout. Top-rated school district.",https://picsum.photos/seed/18a97ee8/800/600,40.631425,-74.046141
89b820e8-3029-44df-bfd7-bbdcb55baf15,7096 Logan Rapids,Boston,MA,02146,500950,4,4.5,2257,Townhouse,1933,5.8,Jamaica Plain,sold,81,,,200,Charming townhouse with 4.5 bathrooms in desirable Jamaica Plain. Open floor plan with natural light. Top-rated school district. Close to restaurants and shops. Private backyard and patio.,https://picsum.photos/seed/150403af/800/600,42.356833,-71.021169
055418a5-a7cb-4001-b9f2-e41eafa45bd7,6893 Lewis Streets,Nashville,TN,37236,309772,2,2.5,1760,Condo,2023,7.4,East Nashville,auction,30,2026-05-12,216913,150,Stunning 2-bedroom condo located in East Nashville. Private backyard and patio. Recently updated kitchen and bathrooms. Open floor plan with natural light.,https://picsum.photos/seed/78096b50/800/600,36.155677,-86.722253
1e49fc50-7c54-4df6-b79f-649bd3adf719,2977 Wilson Motorway,Denver,CO,80213,666872,3,3.0,1659,Single Family,1958,7.9,Highlands,auction,42,2026-05-09,535415,0,"Beautiful single family in the heart of Highlands, Denver. Private backyard and patio. Top-rated school district. Hardwood floors throughout. Close to restaurants and shops.",https://picsum.photos/seed/0abe338a/800/600,39.784079,-104.967101
fd988a3f-4b3c-4de0-b7fe-57c41a3a3c0b,8879 Amy Mountains,Austin,TX,78781,317419,3,3.5,2393,Condo,1979,8.5,Mueller,sold,8,,,350,"Beautiful condo in the heart of Mueller, Austin. Private backyard and patio. Close to restaurants and shops. Recently updated kitchen and bathrooms.",https://picsum.photos/seed/eea8677f/800/600,30.280189,-97.70746
4dd868ff-4d1a-454f-802b-39bcc2a93236,4548 Danielle Island,Boston,MA,02114,390545,1,1.0,1065,Condo,1941,2.7,Jamaica Plain,auction,50,2026-05-09,324030,350,Stunning 1-bedroom condo located in Jamaica Plain. Top-rated school district. Built in 1941. Recently updated kitchen and bathrooms.,https://picsum.photos/seed/3b002950/800/600,42.401153,-71.096
8553a18e-f4b3-446c-bf58-4e528830e2e0,8021 Vanessa Trail,Portland,OR,97253,349164,3,3.0,1992,Townhouse,2019,5.6,Alberta Arts,active,57,,,500,"Charming townhouse with 3.0 bathrooms in desirable Alberta Arts. Open floor plan with natural light. Close to restaurants and shops. Recently updated kitchen and bathrooms. Built in 2019. Features 1,992 sqft of living space.",https://picsum.photos/seed/201e9ab0/800/600,45.596191,-122.747584
7e335551-b03b-4e80-a61a-dd70393ad5e0,8629 Brown Valley,San Francisco,CA,94123,617867,1,1.0,926,Condo,1920,8.6,SOMA,active,88,,,200,Charming condo with 1.0 bathrooms in desirable SOMA. Open floor plan with natural light. Features 926 sqft of living space. Top-rated school district. Recently updated kitchen and bathrooms. Built in 1920.,https://picsum.photos/seed/f4f2d4d5/800/600,37.741558,-122.341563
7bea9073-0cb9-417e-aa5b-2b380726efb6,4540 Clarke Mountains,Nashville,TN,37250,222049,2,2.5,1510,Condo,1954,2.0,East Nashville,active,36,,,200,"Beautiful condo in the heart of East Nashville, Nashville. Open floor plan with natural light. Top-rated school district. Built in 1954. Private backyard and patio. Features 1,510 sqft of living space.",https://picsum.photos/seed/2f9d2a88/800/600,36.104015,-86.811536
d93a72f7-c162-45ff-a0d6-c8f818ced0bb,7404 Brian Ways,Miami,FL,33190,452984,1,1.0,866,Townhouse,1933,4.8,Coconut Grove,active,12,,,250,Charming townhouse with 1.0 bathrooms in desirable Coconut Grove. Open floor plan with natural light. Recently updated kitchen and bathrooms. Built in 1933. Top-rated school district.,https://picsum.photos/seed/fe1299c5/800/600,25.802636,-80.113545
0ef1a4c3-2501-45a9-bd16-6f3c87d3de08,6054 Stephanie Spur,Boston,MA,02143,975325,1,1.5,888,Multi-Family,1978,7.4,Cambridge,auction,83,2026-05-20,751567,0,Stunning 1-bedroom multi-family located in Cambridge. Private backyard and patio. Close to restaurants and shops. Recently updated kitchen and bathrooms.,https://picsum.photos/seed/a7ad8710/800/600,42.288844,-70.97976
2b788f2a-443e-45c5-ad66-51784ca57193,5439 Nelson Roads,Portland,OR,97223,470737,4,3.5,3016,Multi-Family,1941,6.4,Hawthorne,sold,45,,,50,Charming multi-family with 3.5 bathrooms in desirable Hawthorne. Built in 1941. Close to restaurants and shops. Recently updated kitchen and bathrooms. Open floor plan with natural light. Hardwood floors throughout.,https://picsum.photos/seed/17e5d210/800/600,45.496337,-122.635545
e6fd5a53-ad94-4fd2-bfd2-aae216537823,9021 Christopher Cliff,New York,NY,10053,984400,2,2.5,1688,Multi-Family,1928,7.2,SoHo,active,105,,,0,Charming multi-family with 2.5 bathrooms in desirable SoHo. Recently updated kitchen and bathrooms. Private backyard and patio. Close to restaurants and shops.,https://picsum.photos/seed/8e1fec0e/800/600,40.808841,-73.992558
3bc3546f-9e9c-4713-a81e-59e34ec8bf7b,1562 Savage Pine,Chicago,IL,60654,511877,4,5.0,2812,Multi-Family,1946,8.1,Lakeview,active,73,,,0,Charming multi-family with 5.0 bathrooms in desirable Lakeview. Close to restaurants and shops. Top-rated school district. Built in 1946.,https://picsum.photos/seed/b7afedf4/800/600,41.9618,-87.542465
909f8aff-ee14-43b1-be4c-4f6478970ed9,6752 Elizabeth Green,Miami,FL,33158,497689,5,7.5,2486,Single Family,1965,1.3,Brickell,active,111,,,0,Stunning 5-bedroom single family located in Brickell. Hardwood floors throughout. Private backyard and patio. Built in 1965. Top-rated school district.,https://picsum.photos/seed/578d169e/800/600,25.779733,-80.166757
ce282cf8-8a00-4683-aeb1-e86fc09f6c11,7255 Maria Course,Chicago,IL,60694,260336,2,3.0,1303,Condo,2005,1.6,Wicker Park,active,2,,,150,"Beautiful condo in the heart of Wicker Park, Chicago. Recently updated kitchen and bathrooms. Private backyard and patio. Hardwood floors throughout.",https://picsum.photos/seed/4af81d94/800/600,41.806899,-87.552822
0434f8ad-e945-49f6-baeb-54facbc9cf1e,4511 Peterson Terrace,Portland,OR,97274,779089,4,4.5,3158,Multi-Family,1969,4.8,Hawthorne,active,24,,,150,"Stunning 4-bedroom multi-family located in Hawthorne. Private backyard and patio. Features 3,158 sqft of living space. Close to restaurants and shops. Open floor plan with natural light. Hardwood floors throughout.",https://picsum.photos/seed/26af1f29/800/600,45.584561,-122.73105
0398a8ad-3473-4390-9b46-f0a9bffb722c,1379 Martin Keys,Nashville,TN,37295,465686,1,1.0,1012,Single Family,1979,9.0,Hillsboro Village,active,67,,,150,"Charming single family with 1.0 bathrooms in desirable Hillsboro Village. Open floor plan with natural light. Top-rated school district. Features 1,012 sqft of living space. Recently updated kitchen and bathrooms. Private backyard and patio.",https://picsum.photos/seed/bfc5ab15/800/600,36.188833,-86.748853
3c64dc90-3850-426a-a61f-846af1dc7ea3,4367 Olson Plain,Portland,OR,97282,721584,4,5.0,2691,Multi-Family,1965,1.3,Hawthorne,active,22,,,0,"Beautiful multi-family in the heart of Hawthorne, Portland. Top-rated school district. Open floor plan with natural light. Built in 1965. Close to restaurants and shops. Features 2,691 sqft of living space.",https://picsum.photos/seed/99348fcc/800/600,45.565085,-122.633006
cb0a98b1-2f7e-4ed7-ae7d-8050948f7ee4,7417 Tammy Mews,Miami,FL,33194,464726,1,1.0,781,Single Family,1952,3.5,Wynwood,auction,36,2026-05-14,326298,75,Stunning 1-bedroom single family located in Wynwood. Open floor plan with natural light. Close to restaurants and shops. Private backyard and patio.,https://picsum.photos/seed/ef318f9c/800/600,25.843726,-80.144007
3f921730-4ea7-4046-9dfd-2bb3c935f26f,2840 Gaines Ports,Denver,CO,80266,603922,5,7.0,3118,Multi-Family,1938,5.5,Highlands,active,108,,,0,"Beautiful multi-family in the heart of Highlands, Denver. Private backyard and patio. Features 3,118 sqft of living space. Top-rated school district. Recently updated kitchen and bathrooms. Close to restaurants and shops.",https://picsum.photos/seed/791db226/800/600,39.793274,-105.042711
461514e9-9678-4cff-ac8f-0808acd852fb,6358 Morrow Points,Austin,TX,78767,313329,2,2.0,1663,Condo,1968,2.3,Mueller,pending,34,,,450,"Charming condo with 2.0 bathrooms in desirable Mueller. Features 1,663 sqft of living space. Top-rated school district. Open floor plan with natural light. Recently updated kitchen and bathrooms.",https://picsum.photos/seed/844db353/800/600,30.169573,-97.657655
a335c77c-191d-4c82-838a-cf5631946c6c,5232 Christian Shores,New York,NY,10033,658222,3,4.0,2089,Townhouse,1970,7.7,Astoria,sold,87,,,300,"Charming townhouse with 4.0 bathrooms in desirable Astoria. Features 2,089 sqft of living space. Close to restaurants and shops. Top-rated school district.",https://picsum.photos/seed/1a19ed3f/800/600,40.71679,-73.970456
43822776-c1bc-43a8-97c9-b385e97b418c,9920 Mario View,Austin,TX,78737,455223,1,1.5,891,Multi-Family,2012,1.3,East Austin,active,25,,,0,Charming multi-family with 1.5 bathrooms in desirable East Austin. Built in 2012. Features 891 sqft of living space. Open floor plan with natural light.,https://picsum.photos/seed/d824bf77/800/600,30.178576,-97.724272
c9f1ed0f-ab46-42f7-a794-64b1fd88847c,7095 Smith Mount,Chicago,IL,60645,557427,5,7.0,2726,Multi-Family,2009,5.2,Wicker Park,active,38,,,0,"Charming multi-family with 7.0 bathrooms in desirable Wicker Park. Private backyard and patio. Recently updated kitchen and bathrooms. Built in 2009. Features 2,726 sqft of living space. Close to restaurants and shops.",https://picsum.photos/seed/6d162b19/800/600,41.905856,-87.545261
c41c6b65-fd0e-4ef3-8baf-192788db3fa5,7165 Victor Island,Austin,TX,78779,591360,1,1.0,826,Multi-Family,1976,2.8,Downtown Austin,pending,119,,,0,"Beautiful multi-family in the heart of Downtown Austin, Austin. Built in 1976. Hardwood floors throughout. Private backyard and patio. Recently updated kitchen and bathrooms. Features 826 sqft of living space.",https://picsum.photos/seed/5468391d/800/600,30.296297,-97.821414
19d6e25f-9a46-483a-931f-c59b0eb82685,8139 Laura Spring,Austin,TX,78775,340348,3,4.0,1681,Single Family,1939,4.5,Downtown Austin,active,86,,,100,"Stunning 3-bedroom single family located in Downtown Austin. Close to restaurants and shops. Top-rated school district. Private backyard and patio. Features 1,681 sqft of living space.",https://picsum.photos/seed/0cf6de7d/800/600,30.348124,-97.728172
d2e6172d-a28b-4eac-8c20-da052ace56cf,1585 Baker Stravenue,San Francisco,CA,94192,502391,3,4.0,2200,Condo,1992,7.1,Marina,active,43,,,450,"Stunning 3-bedroom condo located in Marina. Private backyard and patio. Features 2,200 sqft of living space. Hardwood floors throughout. Recently updated kitchen and bathrooms. Built in 1992.",https://picsum.photos/seed/bf9b8fbe/800/600,37.685939,-122.319997
2a4d748c-6a23-4d53-8e26-47fc74e70ccd,9814 Vanessa Village,Chicago,IL,60613,515903,2,2.0,1452,Single Family,2000,9.0,Lakeview,pending,11,,,0,"Beautiful single family in the heart of Lakeview, Chicago. Close to restaurants and shops. Features 1,452 sqft of living space. Open floor plan with natural light. Recently updated kitchen and bathrooms.",https://picsum.photos/seed/1e1359a3/800/600,41.815993,-87.72266
54f24e4e-a162-47e8-8b19-f6d8d86f4570,2540 Cynthia Route,Portland,OR,97278,957618,1,1.0,800,Multi-Family,2020,2.9,Pearl District,pending,16,,,0,Charming multi-family with 1.0 bathrooms in desirable Pearl District. Hardwood floors throughout. Features 800 sqft of living space. Close to restaurants and shops. Built in 2020. Top-rated school district.,https://picsum.photos/seed/b240064b/800/600,45.519824,-122.590382
67b5fb9a-dc11-487f-a351-8d6c69267284,1970 Benjamin Summit,Austin,TX,78723,834059,5,4.0,2537,Multi-Family,1942,8.1,Downtown Austin,active,106,,,0,"Stunning 5-bedroom multi-family located in Downtown Austin. Hardwood floors throughout. Features 2,537 sqft of living space. Built in 1942. Top-rated school district. Recently updated kitchen and bathrooms.",https://picsum.photos/seed/44f16d47/800/600,30.201338,-97.724892
a6bf917a-a5cd-484f-88fb-cb5aa5e8f131,7287 Robert Plains,New York,NY,10031,541716,5,6.0,3129,Townhouse,2017,4.0,Upper West Side,auction,23,2026-05-09,401457,450,"Beautiful townhouse in the heart of Upper West Side, New York. Features 3,129 sqft of living space. Built in 2017. Top-rated school district. Open floor plan with natural light. Hardwood floors throughout.",https://picsum.photos/seed/db2332ef/800/600,40.64641,-74.032015
e030ebc2-9191-45d2-b065-7d0c3332d4ff,4539 Carolyn Forge,Chicago,IL,60628,491295,1,1.0,736,Single Family,2010,7.2,Hyde Park,active,54,,,0,Charming single family with 1.0 bathrooms in desirable Hyde Park. Close to restaurants and shops. Built in 2010. Top-rated school district. Open floor plan with natural light.,https://picsum.photos/seed/311a37ad/800/600,41.873302,-87.704422
b09c5fbe-ffc7-4c71-a8e5-e75cb00fff22,3692 Clark Field,Austin,TX,78774,372574,3,4.5,2040,Condo,1973,2.7,Downtown Austin,auction,31,2026-05-22,315390,400,"Stunning 3-bedroom condo located in Downtown Austin. Hardwood floors throughout. Recently updated kitchen and bathrooms. Features 2,040 sqft of living space. Built in 1973. Private backyard and patio.",https://picsum.photos/seed/9b265609/800/600,30.339746,-97.645744
f394f9e5-1086-40c8-b54d-50761ac42fc9,1810 Mitchell Lakes,Chicago,IL,60615,499595,2,2.5,1071,Multi-Family,2002,4.9,Lakeview,active,27,,,0,"Charming multi-family with 2.5 bathrooms in desirable Lakeview. Recently updated kitchen and bathrooms. Built in 2002. Features 1,071 sqft of living space.",https://picsum.photos/seed/89942fa9/800/600,41.939131,-87.578118
39891d80-7897-47b2-ba14-619bb5f22ec5,6859 Kevin Inlet,Portland,OR,97240,378343,2,2.5,1758,Single Family,1973,9.1,Alberta Arts,sold,87,,,0,"Beautiful single family in the heart of Alberta Arts, Portland. Hardwood floors throughout. Features 1,758 sqft of living space. Top-rated school district. Open floor plan with natural light.",https://picsum.photos/seed/54e23c73/800/600,45.437227,-122.732844
35d6d6fc-6a9a-4a7f-b82f-e25ccbc2c962,625 Holly Run,Portland,OR,97226,706195,2,2.0,1555,Single Family,1969,7.5,Hawthorne,active,59,,,0,"Charming single family with 2.0 bathrooms in desirable Hawthorne. Features 1,555 sqft of living space. Recently updated kitchen and bathrooms. Built in 1969. Top-rated school district. Hardwood floors throughout.",https://picsum.photos/seed/0de31600/800/600,45.610311,-122.737958
1af1c115-c145-475e-949d-cc73b900f7ad,3646 Gutierrez Knoll,Portland,OR,97272,544024,3,3.0,1933,Multi-Family,2021,9.7,Sellwood,active,74,,,0,"Charming multi-family with 3.0 bathrooms in desirable Sellwood. Top-rated school district. Recently updated kitchen and bathrooms. Features 1,933 sqft of living space. Hardwood floors throughout.",https://picsum.photos/seed/e2dde01e/800/600,45.432495,-122.607005
1b5752d6-69a9-425a-88c2-a2772dc95ee9,1705 Clayton Meadow,Denver,CO,80299,343856,3,3.0,1921,Condo,1920,9.9,RiNo,active,6,,,150,"Stunning 3-bedroom condo located in RiNo. Hardwood floors throughout. Features 1,921 sqft of living space. Open floor plan with natural light. Close to restaurants and shops.",https://picsum.photos/seed/4b562d5d/800/600,39.72434,-105.011436
7074399a-fbea-4113-bc88-3b9d5d3d6128,6741 Wilson Fall,New York,NY,10027,445408,2,2.0,1100,Condo,1981,5.1,SoHo,active,91,,,150,"Beautiful condo in the heart of SoHo, New York. Top-rated school district. Private backyard and patio. Close to restaurants and shops. Features 1,100 sqft of living space.",https://picsum.photos/seed/e2da609c/800/600,40.808084,-74.013248
85b5ac84-7aab-4dc9-abe2-a64aebb76c3a,8533 Patterson Fall,Boston,MA,02117,1195461,3,3.5,2071,Multi-Family,2016,5.9,Cambridge,auction,79,2026-05-31,873968,0,"Charming multi-family with 3.5 bathrooms in desirable Cambridge. Features 2,071 sqft of living space. Top-rated school district. Hardwood floors throughout. Recently updated kitchen and bathrooms.",https://picsum.photos/seed/c4b195dd/800/600,42.384191,-71.091761
55786aad-da80-429d-9fd1-a3e4abbf43fb,3537 Amy Light,Portland,OR,97299,496228,2,2.5,1355,Single Family,2010,3.1,Alberta Arts,active,43,,,150,Charming single family with 2.5 bathrooms in desirable Alberta Arts. Private backyard and patio. Recently updated kitchen and bathrooms. Close to restaurants and shops.,https://picsum.photos/seed/41e4823d/800/600,45.562676,-122.627945
cc7fa1b0-e9ae-4a5a-a6f6-2f531791bd52,6131 Bruce Spurs,San Francisco,CA,94189,1318054,1,1.0,1079,Multi-Family,1984,7.4,Marina,active,61,,,0,"Charming multi-family with 1.0 bathrooms in desirable Marina. Built in 1984. Top-rated school district. Hardwood floors throughout. Features 1,079 sqft of living space. Open floor plan with natural light.",https://picsum.photos/seed/0549d341/800/600,37.781471,-122.460947
cdcbc2d0-ed09-430b-8617-fa21b1647d32,2263 Walters Squares,New York,NY,10079,514210,1,1.0,798,Condo,2009,8.9,Brooklyn Heights,pending,20,,,150,Stunning 1-bedroom condo located in Brooklyn Heights. Close to restaurants and shops. Hardwood floors throughout. Private backyard and patio. Features 798 sqft of living space.,https://picsum.photos/seed/dec4a35a/800/600,40.671434,-73.912085
28f017ac-2b41-49c5-b28a-542dabed16f7,9086 Wanda Valley,Miami,FL,33177,243866,1,1.5,1037,Condo,1972,6.8,Miami Beach,active,84,,,400,Stunning 1-bedroom condo located in Miami Beach. Open floor plan with natural light. Top-rated school district. Built in 1972. Recently updated kitchen and bathrooms.,https://picsum.photos/seed/347ce6f9/800/600,25.75893,-80.158629
e0e420fb-c263-4999-abff-fa259ccf0669,2614 Christopher Brook,Chicago,IL,60632,246799,3,4.5,1547,Townhouse,1965,6.6,Lakeview,pending,22,,,250,"Beautiful townhouse in the heart of Lakeview, Chicago. Built in 1965. Features 1,547 sqft of living space. Recently updated kitchen and bathrooms.",https://picsum.photos/seed/6420d4d4/800/600,41.920462,-87.672751
8c045316-b199-4792-8639-a1b7e93e82f8,6728 Garcia Summit,Seattle,WA,98113,478983,2,2.0,1591,Condo,2005,4.4,Fremont,active,19,,,250,Stunning 2-bedroom condo located in Fremont. Top-rated school district. Recently updated kitchen and bathrooms. Built in 2005.,https://picsum.photos/seed/c7489c40/800/600,47.612929,-122.407802
a73574f4-7655-443a-aec5-d80ca0a5c7de,9126 Cynthia Parkway,Austin,TX,78727,438406,3,3.5,2137,Townhouse,2005,9.2,South Lamar,auction,94,2026-05-20,329156,200,"Beautiful townhouse in the heart of South Lamar, Austin. Features 2,137 sqft of living space. Hardwood floors throughout. Open floor plan with natural light. Built in 2005.",https://picsum.photos/seed/b7e757b4/800/600,30.313528,-97.663065
d35badf2-f8b0-4311-a47c-5dd0bfea9b07,1531 Elizabeth Walk,Portland,OR,97295,309593,1,1.0,997,Townhouse,1987,2.8,Alberta Arts,sold,36,,,200,Charming townhouse with 1.0 bathrooms in desirable Alberta Arts. Hardwood floors throughout. Top-rated school district. Recently updated kitchen and bathrooms. Open floor plan with natural light.,https://picsum.photos/seed/4e8a8b02/800/600,45.522882,-122.689308
5c957e09-a446-4cd1-83b1-f280c1d57107,7378 Lewis Trail,Seattle,WA,98137,998730,3,3.0,2243,Single Family,1969,4.1,Fremont,active,37,,,0,Charming single family with 3.0 bathrooms in desirable Fremont. Top-rated school district. Recently updated kitchen and bathrooms. Built in 1969. Hardwood floors throughout.,https://picsum.photos/seed/d01bd8f9/800/600,47.595315,-122.319893
11a90206-22e0-4519-bbb4-6ea15cea0886,6891 Arnold Crescent,New York,NY,10044,756046,3,2.5,1873,Condo,1980,9.4,Park Slope,active,9,,,450,"Beautiful condo in the heart of Park Slope, New York. Top-rated school district. Private backyard and patio. Open floor plan with natural light. Built in 1980. Close to restaurants and shops.",https://picsum.photos/seed/078ecc4c/800/600,40.63049,-74.024108
477bd4da-5974-498e-ba42-92902868d9ab,2134 Melissa Crossing,Chicago,IL,60670,423864,4,3.5,2715,Multi-Family,1958,5.2,Logan Square,auction,95,2026-05-06,347010,100,Charming multi-family with 3.5 bathrooms in desirable Logan Square. Open floor plan with natural light. Hardwood floors throughout. Built in 1958. Close to restaurants and shops. Private backyard and patio.,https://picsum.photos/seed/2c8b89b8/800/600,41.969305,-87.562951
62c86dc4-1844-4aa8-bd20-152b6f92ccfe,387 Ponce Mountain,Austin,TX,78783,590298,4,6.0,2121,Single Family,1994,8.8,Mueller,auction,56,2026-05-26,473942,0,"Stunning 4-bedroom single family located in Mueller. Features 2,121 sqft of living space. Built in 1994. Recently updated kitchen and bathrooms.",https://picsum.photos/seed/1b12f32d/800/600,30.330856,-97.76846
1640c13b-430f-46d0-8b34-90bae43f1ce2,1648 Odonnell Rue,Portland,OR,97233,320420,1,1.0,996,Condo,1926,6.8,Hawthorne,active,68,,,200,Charming condo with 1.0 bathrooms in desirable Hawthorne. Private backyard and patio. Close to restaurants and shops. Recently updated kitchen and bathrooms.,https://picsum.photos/seed/74d89d65/800/600,45.517973,-122.625112
b0bfebbc-f2ff-4a0a-8e25-ad1342194084,1778 Smith Landing,Miami,FL,33130,499341,3,2.5,2468,Townhouse,1938,3.5,Brickell,active,67,,,500,"Beautiful townhouse in the heart of Brickell, Miami. Hardwood floors throughout. Close to restaurants and shops. Built in 1938.",https://picsum.photos/seed/4e625921/800/600,25.744099,-80.107619
b5244748-e1e1-42bb-98c5-95f294a2f21a,2921 William Grove,San Francisco,CA,94153,1137264,1,1.0,675,Single Family,1981,4.3,SOMA,active,89,,,0,Charming single family with 1.0 bathrooms in desirable SOMA. Features 675 sqft of living space. Private backyard and patio. Top-rated school district. Built in 1981.,https://picsum.photos/seed/0ab43b9c/800/600,37.852845,-122.39987
767b2eda-5dcd-4c28-b6ed-24eb5a49a552,8512 Parker Underpass,Chicago,IL,60694,284474,2,2.0,1172,Condo,1974,8.0,Lincoln Park,active,3,,,450,"Charming condo with 2.0 bathrooms in desirable Lincoln Park. Top-rated school district. Features 1,172 sqft of living space. Recently updated kitchen and bathrooms.",https://picsum.photos/seed/e62987f6/800/600,41.786603,-87.708237
ffada142-cd3a-4b83-b333-6767ad972139,8302 Nunez Avenue,Austin,TX,78730,423592,1,1.5,768,Single Family,1995,4.2,South Lamar,active,86,,,100,Charming single family with 1.5 bathrooms in desirable South Lamar. Hardwood floors throughout. Open floor plan with natural light. Close to restaurants and shops. Features 768 sqft of living space. Private backyard and patio.,https://picsum.photos/seed/ff4b90dd/800/600,30.356958,-97.773533
0efa5e36-0ca3-479a-8d47-ba1e95f82ba3,1858 Johnson Burg,Seattle,WA,98166,786149,2,3.0,1449,Single Family,1920,5.5,Capitol Hill,active,118,,,0,"Beautiful single family in the heart of Capitol Hill, Seattle. Close to restaurants and shops. Hardwood floors throughout. Built in 1920. Open floor plan with natural light.",https://picsum.photos/seed/3ed7de27/800/600,47.579493,-122.314224
fdd8b063-3654-40e3-b1b7-8a4865241384,6404 Krystal Ville,Denver,CO,80224,565047,3,2.5,1834,Multi-Family,1937,7.3,RiNo,sold,47,,,0,Stunning 3-bedroom multi-family located in RiNo. Open floor plan with natural light. Private backyard and patio. Hardwood floors throughout. Built in 1937.,https://picsum.photos/seed/3213791d/800/600,39.647322,-105.024677
fa43a6c3-ccf5-4ef9-90dd-9e78a01c5283,1492 Rogers Ports,San Francisco,CA,94194,1333434,4,3.5,2183,Multi-Family,2006,10.0,SOMA,active,2,,,0,"Beautiful multi-family in the heart of SOMA, San Francisco. Close to restaurants and shops. Hardwood floors throughout. Private backyard and patio.",https://picsum.photos/seed/39065bc7/800/600,37.695934,-122.431788
92230ee7-689a-403e-9ef4-096002766da6,9826 Allen Lock,Seattle,WA,98184,905202,2,1.5,1375,Single Family,1945,3.1,West Seattle,pending,16,,,0,Stunning 2-bedroom single family located in West Seattle. Close to restaurants and shops. Recently updated kitchen and bathrooms. Hardwood floors throughout. Open floor plan with natural light. Private backyard and patio.,https://picsum.photos/seed/1ec448cb/800/600,47.606022,-122.279137
8dffb15e-6ae9-498d-b1cd-dab2fcf1d422,6369 Christina Lock,Portland,OR,97232,327159,4,3.5,2562,Townhouse,1983,1.3,Alberta Arts,auction,18,2026-05-29,231604,200,"Charming townhouse with 3.5 bathrooms in desirable Alberta Arts. Private backyard and patio. Built in 1983. Recently updated kitchen and bathrooms. Open floor plan with natural light. Features 2,562 sqft of living space.",https://picsum.photos/seed/f2060404/800/600,45.514827,-122.77305
202a50b9-539d-4574-aae7-21457ede6d69,6385 Laurie Ports,Boston,MA,02125,1127386,2,2.0,1759,Multi-Family,1984,8.3,Cambridge,auction,44,2026-05-23,881607,0,"Stunning 2-bedroom multi-family located in Cambridge. Close to restaurants and shops. Hardwood floors throughout. Top-rated school district. Features 1,759 sqft of living space.",https://picsum.photos/seed/de21676a/800/600,42.26642,-71.072819
99bde8ed-965a-4b11-aa1d-f1af2eb35819,8937 Anderson Roads,Austin,TX,78780,335009,2,3.0,1419,Condo,1975,4.5,South Lamar,active,92,,,200,Charming condo with 3.0 bathrooms in desirable South Lamar. Top-rated school district. Open floor plan with natural light. Built in 1975. Close to restaurants and shops.,https://picsum.photos/seed/790eb06a/800/600,30.280971,-97.744989
8df2750e-a364-444f-8cb9-dc8a01d8d9fd,5691 Madden Extensions,Austin,TX,78713,532766,5,7.5,3245,Multi-Family,1961,1.4,Downtown Austin,active,76,,,0,Stunning 5-bedroom multi-family located in Downtown Austin. Close to restaurants and shops. Recently updated kitchen and bathrooms. Top-rated school district.,https://picsum.photos/seed/2d0c7cdd/800/600,30.236975,-97.694689
d5c225d4-5196-4d30-9bd4-243ee7897a5b,7021 Strong Path,New York,NY,10094,506708,2,2.0,1361,Townhouse,2008,4.0,Upper West Side,active,15,,,150,"Charming townhouse with 2.0 bathrooms in desirable Upper West Side. Close to restaurants and shops. Recently updated kitchen and bathrooms. Features 1,361 sqft of living space. Hardwood floors throughout. Private backyard and patio.",https://picsum.photos/seed/544663c0/800/600,40.720483,-74.098524
06884ab6-8496-4669-bc48-112bb588519e,7243 Samuel Courts,Nashville,TN,37256,601267,3,3.5,2201,Multi-Family,2008,5.5,East Nashville,active,64,,,0,"Beautiful multi-family in the heart of East Nashville, Nashville. Built in 2008. Close to restaurants and shops. Open floor plan with natural light. Top-rated school district.",https://picsum.photos/seed/c37d5e01/800/600,36.130608,-86.758634
04b34303-a755-4206-b266-8df952c16b85,3536 William Roads,Miami,FL,33164,295210,5,5.5,2822,Townhouse,2011,4.0,Miami Beach,active,76,,,200,Stunning 5-bedroom townhouse located in Miami Beach. Open floor plan with natural light. Top-rated school district. Recently updated kitchen and bathrooms.,https://picsum.photos/seed/e47b0fce/800/600,25.774986,-80.185587
e0002a44-51ab-4a70-ab7f-95936af0bd9b,4489 Cameron Road,New York,NY,10069,584841,4,4.0,3084,Townhouse,2005,1.2,Park Slope,active,113,,,250,"Charming townhouse with 4.0 bathrooms in desirable Park Slope. Close to restaurants and shops. Open floor plan with natural light. Private backyard and patio. Features 3,084 sqft of living space. Built in 2005.",https://picsum.photos/seed/686fc7ca/800/600,40.728169,-74.063409
67f01ea6-93af-4f79-9be8-a3848241830e,9950 Hood Estate,Nashville,TN,37242,425461,2,2.5,1528,Multi-Family,1972,2.8,12 South,active,82,,,0,"Beautiful multi-family in the heart of 12 South, Nashville. Hardwood floors throughout. Features 1,528 sqft of living space. Built in 1972. Private backyard and patio.",https://picsum.photos/seed/2d8516d0/800/600,36.227442,-86.752391
70827012-26a4-4b43-a694-cfd68e7bb974,9122 Harris Course,Austin,TX,78794,391258,2,2.0,1795,Condo,1974,3.5,Downtown Austin,active,21,,,150,"Beautiful condo in the heart of Downtown Austin, Austin. Features 1,795 sqft of living space. Private backyard and patio. Hardwood floors throughout. Top-rated school district. Open floor plan with natural light.",https://picsum.photos/seed/fdfc015c/800/600,30.218879,-97.682392
c6272c5c-a547-4c8a-8856-b488ecc80f97,2076 Samuel Road,Boston,MA,02174,614265,1,1.5,994,Townhouse,2005,7.5,Back Bay,pending,108,,,250,Charming townhouse with 1.5 bathrooms in desirable Back Bay. Open floor plan with natural light. Hardwood floors throughout. Features 994 sqft of living space. Built in 2005. Private backyard and patio.,https://picsum.photos/seed/ad1839c0/800/600,42.307308,-71.044705
c37b785d-b43f-4071-8923-2ae87382f578,1016 Anthony Station,Nashville,TN,37285,437077,4,5.5,2496,Townhouse,1947,2.9,East Nashville,active,23,,,350,"Stunning 4-bedroom townhouse located in East Nashville. Private backyard and patio. Top-rated school district. Features 2,496 sqft of living space. Recently updated kitchen and bathrooms. Hardwood floors throughout.",https://picsum.photos/seed/34a8f00d/800/600,36.150595,-86.830739
fa6654ae-a7ed-4085-aab1-b9eaef0afcfe,4244 Ashley Burg,Portland,OR,97240,477961,1,1.0,945,Condo,1922,7.7,Sellwood,active,108,,,150,Charming condo with 1.0 bathrooms in desirable Sellwood. Open floor plan with natural light. Private backyard and patio. Close to restaurants and shops. Recently updated kitchen and bathrooms.,https://picsum.photos/seed/bcc2b06e/800/600,45.553336,-122.620639
905fb8ef-4498-44c5-9a9e-c825bd49ad4a,6756 Tonya Roads,Boston,MA,02192,585634,2,1.5,1532,Condo,1958,3.7,Back Bay,sold,31,,,250,"Beautiful condo in the heart of Back Bay, Boston. Built in 1958. Close to restaurants and shops. Hardwood floors throughout. Private backyard and patio.",https://picsum.photos/seed/e530e3f8/800/600,42.443278,-71.032629
b2f6c739-1400-49df-a7d5-bbada72b228f,3110 Lopez Shoal,New York,NY,10016,866257,1,1.5,992,Townhouse,1928,7.6,SoHo,pending,78,,,400,Charming townhouse with 1.5 bathrooms in desirable SoHo. Recently updated kitchen and bathrooms. Features 992 sqft of living space. Hardwood floors throughout. Built in 1928.,https://picsum.photos/seed/ab8fb073/800/600,40.703452,-74.10053
1650f376-a3ad-4d4b-a600-72eee2c3051d,4716 Kenneth Plain,Miami,FL,33151,464258,1,1.0,930,Townhouse,1996,5.3,Coconut Grove,active,58,,,250,"Beautiful townhouse in the heart of Coconut Grove, Miami. Close to restaurants and shops. Recently updated kitchen and bathrooms. Built in 1996.",https://picsum.photos/seed/e99b43f9/800/600,25.713836,-80.154307
03d8135e-d989-4833-b140-7d0ce078a47f,9936 Jessica Valley,New York,NY,10064,1608665,5,5.0,2540,Multi-Family,2002,9.2,Park Slope,auction,30,2026-05-20,1173907,0,Stunning 5-bedroom multi-family located in Park Slope. Built in 2002. Recently updated kitchen and bathrooms. Top-rated school district.,https://picsum.photos/seed/aea8c921/800/600,40.646551,-74.025793
feed8529-723f-4958-9e73-c21a8672e299,6359 Townsend Shoals,Seattle,WA,98173,497904,5,5.5,3613,Single Family,1935,2.7,Ballard,sold,27,,,0,"Beautiful single family in the heart of Ballard, Seattle. Hardwood floors throughout. Open floor plan with natural light. Built in 1935. Recently updated kitchen and bathrooms.",https://picsum.photos/seed/537a8c4b/800/600,47.662624,-122.374508
2ef1b932-994f-4e1b-acfc-92378132aeb3,6613 Joshua Divide,Denver,CO,80251,603671,2,1.5,1388,Multi-Family,1999,6.2,RiNo,active,48,,,0,Charming multi-family with 1.5 bathrooms in desirable RiNo. Close to restaurants and shops. Private backyard and patio. Hardwood floors throughout.,https://picsum.photos/seed/c4365603/800/600,39.656348,-104.996524
72f80116-a121-480e-9ae5-9a1e01329114,5056 Danielle Prairie,Seattle,WA,98158,424728,5,4.0,3170,Townhouse,1980,9.7,Fremont,auction,86,2026-05-25,342515,150,"Stunning 5-bedroom townhouse located in Fremont. Private backyard and patio. Built in 1980. Open floor plan with natural light. Features 3,170 sqft of living space. Close to restaurants and shops.",https://picsum.photos/seed/c6545032/800/600,47.507272,-122.331192
d4a8c1e6-ea0b-4ca7-b35b-0c1213d4798f,6007 Daniel Ranch,Miami,FL,33145,358474,2,3.0,1179,Condo,1960,3.3,Miami Beach,pending,19,,,400,Stunning 2-bedroom condo located in Miami Beach. Open floor plan with natural light. Top-rated school district. Recently updated kitchen and bathrooms. Close to restaurants and shops.,https://picsum.photos/seed/25bdc515/800/600,25.670532,-80.266226
0de40c78-c0c3-4afd-8be9-4e47810b9ca6,7250 Daniel Haven,Nashville,TN,37269,735351,3,4.0,2230,Multi-Family,1991,2.3,Germantown,active,25,,,0,"Beautiful multi-family in the heart of Germantown, Nashville. Features 2,230 sqft of living space. Hardwood floors throughout. Recently updated kitchen and bathrooms. Open floor plan with natural light.",https://picsum.photos/seed/21741fd2/800/600,36.069872,-86.829555
d2666407-1f9a-458b-80da-8364c48daf57,167 Kline Course,Portland,OR,97284,711354,2,2.0,1198,Multi-Family,1956,5.6,Alberta Arts,active,96,,,0,"Charming multi-family with 2.0 bathrooms in desirable Alberta Arts. Recently updated kitchen and bathrooms. Hardwood floors throughout. Features 1,198 sqft of living space. Built in 1956. Close to restaurants and shops.",https://picsum.photos/seed/8a7cf023/800/600,45.593379,-122.661265
620156b3-8a03-4773-89fa-2def242e7eb5,195 Troy Lake,Boston,MA,02186,374800,1,1.0,819,Townhouse,1939,8.5,Back Bay,active,59,,,500,Stunning 1-bedroom townhouse located in Back Bay. Top-rated school district. Recently updated kitchen and bathrooms. Private backyard and patio.,https://picsum.photos/seed/d74e878f/800/600,42.350911,-70.96786
6e732ed6-fc6b-4fcd-841d-98eb4c23033a,6635 Peter Overpass,Seattle,WA,98140,395437,1,1.5,909,Condo,2022,5.9,Capitol Hill,sold,10,,,450,"Beautiful condo in the heart of Capitol Hill, Seattle. Hardwood floors throughout. Built in 2022. Top-rated school district.",https://picsum.photos/seed/7344a16e/800/600,47.52471,-122.381067
4fd65e7f-d7bf-4495-9e4b-53b7ddad2604,7905 Robert Oval,New York,NY,10059,828059,2,2.0,1723,Townhouse,2014,2.2,SoHo,auction,78,2026-05-27,591579,400,"Stunning 2-bedroom townhouse located in SoHo. Close to restaurants and shops. Features 1,723 sqft of living space. Hardwood floors throughout. Recently updated kitchen and bathrooms. Built in 2014.",https://picsum.photos/seed/57b3fadc/800/600,40.715331,-74.008075
f292bf5c-471d-4728-ab72-5ff198ba7481,5021 Jason Manor,New York,NY,10071,855665,5,5.0,3499,Multi-Family,2002,6.7,Brooklyn Heights,pending,68,,,0,"Beautiful multi-family in the heart of Brooklyn Heights, New York. Open floor plan with natural light. Close to restaurants and shops. Built in 2002.",https://picsum.photos/seed/efaa9ddd/800/600,40.670941,-74.018529
2c7d349a-d147-4d04-ac84-1ef2de7eb0f8,9693 Preston Roads,San Francisco,CA,94142,1339030,1,1.0,885,Multi-Family,1933,1.9,Marina,pending,53,,,0,"Beautiful multi-family in the heart of Marina, San Francisco. Features 885 sqft of living space. Top-rated school district. Private backyard and patio. Hardwood floors throughout. Built in 1933.",https://picsum.photos/seed/7c11e524/800/600,37.788596,-122.468724
92038c47-1736-403e-9b6b-129858f4cb16,3558 Stokes Falls,Chicago,IL,60633,334974,4,5.5,2568,Multi-Family,1995,5.0,Logan Square,sold,86,,,0,"Beautiful multi-family in the heart of Logan Square, Chicago. Open floor plan with natural light. Close to restaurants and shops. Private backyard and patio.",https://picsum.photos/seed/76a02088/800/600,41.846367,-87.546178
db02ee90-e669-48bb-8f61-58815ac696de,6010 Smith Fall,Boston,MA,02148,952738,1,1.0,693,Multi-Family,2003,4.6,Beacon Hill,pending,89,,,0,Charming multi-family with 1.0 bathrooms in desirable Beacon Hill. Close to restaurants and shops. Top-rated school district. Recently updated kitchen and bathrooms. Features 693 sqft of living space. Built in 2003.,https://picsum.photos/seed/8cf8a473/800/600,42.408949,-71.013718
3b1f8542-4110-4c68-a944-91d111cd1053,2527 David Junctions,Chicago,IL,60669,298424,1,1.5,709,Single Family,1946,6.8,Logan Square,auction,19,2026-05-19,246591,0,Stunning 1-bedroom single family located in Logan Square. Features 709 sqft of living space. Top-rated school district. Built in 1946. Private backyard and patio.,https://picsum.photos/seed/f35e4b0d/800/600,41.885817,-87.712581
39093a09-d960-4f37-8572-8173a705e196,9580 Webb Ridges,Portland,OR,97273,700174,4,5.0,2362,Multi-Family,1992,1.1,Division,active,43,,,0,"Charming multi-family with 5.0 bathrooms in desirable Division. Open floor plan with natural light. Features 2,362 sqft of living space. Hardwood floors throughout. Private backyard and patio. Top-rated school district.",https://picsum.photos/seed/332e17a4/800/600,45.557819,-122.582503
ac5020f7-5005-42ec-a6a9-60026397512d,5781 Eric Streets,San Francisco,CA,94192,1266300,1,1.0,1111,Multi-Family,1960,9.0,Marina,active,35,,,0,"Stunning 1-bedroom multi-family located in Marina. Close to restaurants and shops. Features 1,111 sqft of living space. Built in 1960. Recently updated kitchen and bathrooms. Private backyard and patio.",https://picsum.photos/seed/69a187f0/800/600,37.769568,-122.420442
8ff3a8fc-ec31-449e-842d-449cd739e85c,7838 House Fields,Portland,OR,97256,420195,5,5.0,3304,Townhouse,1936,4.5,Hawthorne,sold,92,,,450,"Beautiful townhouse in the heart of Hawthorne, Portland. Hardwood floors throughout. Recently updated kitchen and bathrooms. Private backyard and patio. Features 3,304 sqft of living space. Top-rated school district.",https://picsum.photos/seed/425ab1ce/800/600,45.581816,-122.643779
229456ca-1858-4805-b062-88cc8ecab693,2698 Amanda Path,Chicago,IL,60696,195556,3,3.5,2288,Condo,1958,1.4,Wicker Park,active,72,,,150,"Beautiful condo in the heart of Wicker Park, Chicago. Features 2,288 sqft of living space. Close to restaurants and shops. Top-rated school district. Recently updated kitchen and bathrooms. Hardwood floors throughout.",https://picsum.photos/seed/9f27abcb/800/600,41.849857,-87.677638
6d2a4b40-9f31-4dba-90a1-83c267805e5f,1806 Javier Lakes,Boston,MA,02187,336542,1,1.0,955,Condo,2018,6.0,Back Bay,sold,113,,,250,Charming condo with 1.0 bathrooms in desirable Back Bay. Top-rated school district. Close to restaurants and shops. Hardwood floors throughout.,https://picsum.photos/seed/e6603ef1/800/600,42.430782,-70.984161
dc420039-3c4d-44c5-bda7-50e8680b22ab,7333 Rachel Burgs,Boston,MA,02147,861459,5,6.5,2747,Single Family,1925,6.7,Jamaica Plain,active,22,,,0,Charming single family with 6.5 bathrooms in desirable Jamaica Plain. Built in 1925. Top-rated school district. Private backyard and patio. Recently updated kitchen and bathrooms.,https://picsum.photos/seed/81f952bc/800/600,42.442297,-71.127493
96faae2d-7ebc-4c5a-a335-f3f632ecc42c,6008 Taylor Corner,Nashville,TN,37263,207580,1,1.0,815,Condo,1951,5.5,Germantown,active,37,,,200,Charming condo with 1.0 bathrooms in desirable Germantown. Hardwood floors throughout. Built in 1951. Open floor plan with natural light. Top-rated school district. Close to restaurants and shops.,https://picsum.photos/seed/0b0a4a25/800/600,36.115903,-86.73856
29afa4f2-dc4b-4aee-966d-ad02f88c9a12,6680 Joseph Orchard,Chicago,IL,60650,468981,4,5.5,3041,Multi-Family,1923,1.1,Logan Square,active,99,,,0,"Beautiful multi-family in the heart of Logan Square, Chicago. Features 3,041 sqft of living space. Hardwood floors throughout. Top-rated school district. Built in 1923.",https://picsum.photos/seed/21ce8788/800/600,41.966829,-87.712844
0afd969d-d655-421f-8505-e9fc5c1f3f9d,2506 Stephanie Keys,Seattle,WA,98177,1037530,5,7.5,3475,Single Family,2007,7.7,West Seattle,active,93,,,0,Charming single family with 7.5 bathrooms in desirable West Seattle. Top-rated school district. Private backyard and patio. Built in 2007. Open floor plan with natural light.,https://picsum.photos/seed/a2baaabe/800/600,47.50778,-122.376144
dab7af6f-3097-44b1-acef-5728e07336f2,3601 Owens Valleys,Seattle,WA,98146,1144758,4,5.5,2459,Multi-Family,1924,7.5,West Seattle,active,50,,,0,"Beautiful multi-family in the heart of West Seattle, Seattle. Open floor plan with natural light. Top-rated school district. Recently updated kitchen and bathrooms. Built in 1924. Features 2,459 sqft of living space.",https://picsum.photos/seed/61b68aea/800/600,47.531401,-122.233715
c407641b-93a0-44e6-8c0b-272ee2073b8c,7452 Graham Locks,Austin,TX,78725,321505,3,4.0,2230,Townhouse,2013,6.6,Downtown Austin,active,34,,,400,"Stunning 3-bedroom townhouse located in Downtown Austin. Features 2,230 sqft of living space. Hardwood floors throughout. Recently updated kitchen and bathrooms. Built in 2013. Open floor plan with natural light.",https://picsum.photos/seed/13f6a520/800/600,30.191963,-97.691788
5b866c24-6587-4251-9309-ef3b170ffaa6,2501 John Flat,Nashville,TN,37222,296841,5,6.5,3431,Townhouse,2014,5.6,East Nashville,active,42,,,300,"Charming townhouse with 6.5 bathrooms in desirable East Nashville. Close to restaurants and shops. Features 3,431 sqft of living space. Top-rated school district. Private backyard and patio.",https://picsum.photos/seed/c4b433ea/800/600,36.227269,-86.809346
df1493d7-a634-4108-82ea-db38d85d29aa,6930 Hayden Cove,New York,NY,10072,597253,2,1.5,1744,Condo,1995,4.6,Park Slope,auction,100,2026-05-14,470423,450,"Beautiful condo in the heart of Park Slope, New York. Recently updated kitchen and bathrooms. Hardwood floors throughout. Private backyard and patio.",https://picsum.photos/seed/a0605b8d/800/600,40.812102,-73.968196
9fefa872-f0e2-4ebd-8a67-f4dfd303507a,1907 Martin Ford,Portland,OR,97262,479188,3,4.0,1688,Condo,1978,2.4,Division,active,96,,,400,"Beautiful condo in the heart of Division, Portland. Open floor plan with natural light. Features 1,688 sqft of living space. Top-rated school district. Built in 1978.",https://picsum.photos/seed/f3fbb06f/800/600,45.599539,-122.754647
0b5ef84f-b40d-469b-b2fe-16ddcd21912b,3632 Hamilton Mission,Boston,MA,02146,490848,3,3.0,2158,Townhouse,2021,6.3,South End,active,101,,,150,"Beautiful townhouse in the heart of South End, Boston. Top-rated school district. Features 2,158 sqft of living space. Close to restaurants and shops. Open floor plan with natural light. Recently updated kitchen and bathrooms.",https://picsum.photos/seed/42dcfb73/800/600,42.447464,-71.097867
73fc4f20-626f-4b1f-9256-c59a00e80c22,7471 Carlson Groves,Boston,MA,02168,672139,5,5.0,3527,Single Family,2020,7.5,Beacon Hill,pending,107,,,0,Charming single family with 5.0 bathrooms in desirable Beacon Hill. Recently updated kitchen and bathrooms. Close to restaurants and shops. Private backyard and patio. Top-rated school district.,https://picsum.photos/seed/5cb8618d/800/600,42.41249,-71.057947
0ff34ea8-30d8-4f0f-9d41-03fdbfaa78a8,2128 Dean Rest,Boston,MA,02192,853270,4,4.0,2118,Multi-Family,2014,8.8,Cambridge,auction,12,2026-05-28,600463,0,"Charming multi-family with 4.0 bathrooms in desirable Cambridge. Built in 2014. Top-rated school district. Open floor plan with natural light. Private backyard and patio. Features 2,118 sqft of living space.",https://picsum.photos/seed/b460b7c8/800/600,42.414419,-71.09713
e160379b-f6d3-4353-b15d-006866719ed8,6683 Patterson Port,Seattle,WA,98151,591703,3,4.5,1855,Condo,1943,2.9,Capitol Hill,active,101,,,500,"Charming condo with 4.5 bathrooms in desirable Capitol Hill. Top-rated school district. Close to restaurants and shops. Features 1,855 sqft of living space.",https://picsum.photos/seed/10cdfc8f/800/600,47.52313,-122.325391
c664d076-c008-414f-9e08-1b5477283129,5126 Brooks Roads,Nashville,TN,37229,439091,1,1.5,957,Multi-Family,1952,5.9,The Gulch,active,13,,,0,Stunning 1-bedroom multi-family located in The Gulch. Recently updated kitchen and bathrooms. Features 957 sqft of living space. Open floor plan with natural light. Top-rated school district. Built in 1952.,https://picsum.photos/seed/05a81df1/800/600,36.099234,-86.727939
f5a89b92-c07c-44bc-832e-4b601d808f91,6408 Shannon Bypass,Austin,TX,78774,422288,1,1.0,976,Single Family,1953,2.8,Mueller,active,7,,,0,"Beautiful single family in the heart of Mueller, Austin. Features 976 sqft of living space. Recently updated kitchen and bathrooms. Hardwood floors throughout. Open floor plan with natural light.",https://picsum.photos/seed/13e627d4/800/600,30.284406,-97.744504
55499d6e-394e-42f1-b07b-f79aadaf4402,3433 Matthews Hill,New York,NY,10074,924236,4,5.0,1973,Single Family,1990,3.2,Park Slope,auction,13,2026-05-23,737293,150,"Beautiful single family in the heart of Park Slope, New York. Recently updated kitchen and bathrooms. Close to restaurants and shops. Built in 1990. Open floor plan with natural light.",https://picsum.photos/seed/c39e6166/800/600,40.701996,-73.936744
ee05351c-3937-426e-be5b-23a2a12aecfd,3585 Sanders Crescent,New York,NY,10090,810444,4,6.0,2477,Multi-Family,1920,6.4,Upper West Side,pending,35,,,0,"Charming multi-family with 6.0 bathrooms in desirable Upper West Side. Open floor plan with natural light. Features 2,477 sqft of living space. Built in 1920. Top-rated school district. Close to restaurants and shops.",https://picsum.photos/seed/e6f45978/800/600,40.688831,-74.035716
cf41dbab-29b5-4769-a664-0393c0ec4322,4573 Lisa Meadow,Miami,FL,33167,508121,1,1.5,1027,Single Family,1975,9.6,Wynwood,auction,65,2026-05-16,423056,0,"Beautiful single family in the heart of Wynwood, Miami. Private backyard and patio. Recently updated kitchen and bathrooms. Built in 1975. Hardwood floors throughout. Close to restaurants and shops.",https://picsum.photos/seed/df1d62fb/800/600,25.788734,-80.095872
b4a5d613-92c4-49cf-8fe6-9200de7a5f21,1370 Michael Cliffs,Austin,TX,78793,356017,1,1.0,606,Condo,2006,9.1,South Lamar,pending,72,,,500,Charming condo with 1.0 bathrooms in desirable South Lamar. Top-rated school district. Private backyard and patio. Features 606 sqft of living space.,https://picsum.photos/seed/b5184c3a/800/600,30.319693,-97.735474
ebfaaf40-98f5-4dfe-9f69-9219bf3bfd48,3237 Diane Landing,Nashville,TN,37255,708226,3,3.0,1475,Multi-Family,1979,1.1,12 South,active,57,,,0,"Beautiful multi-family in the heart of 12 South, Nashville. Open floor plan with natural light. Close to restaurants and shops. Private backyard and patio. Built in 1979. Top-rated school district.",https://picsum.photos/seed/5506d98f/800/600,36.214384,-86.745489
b2efb064-694c-4523-8e97-de5826f08931,9979 Kimberly Crossing,Portland,OR,97282,291774,4,5.5,2231,Townhouse,1945,3.5,Division,active,112,,,500,Charming townhouse with 5.5 bathrooms in desirable Division. Built in 1945. Open floor plan with natural light. Top-rated school district.,https://picsum.photos/seed/46cbae36/800/600,45.449295,-122.739646
fb60fe81-36f6-42c2-819c-4adfc585dd9e,949 Lucas Branch,Boston,MA,02196,383503,3,4.0,2341,Condo,1944,5.8,Back Bay,auction,87,2026-05-14,307608,500,"Stunning 3-bedroom condo located in Back Bay. Close to restaurants and shops. Recently updated kitchen and bathrooms. Features 2,341 sqft of living space. Open floor plan with natural light.",https://picsum.photos/seed/df189236/800/600,42.260491,-71.073477
849a0e1d-9f63-46db-81cd-97ae4f9958d3,7043 Lewis Port,Portland,OR,97298,642965,1,1.5,738,Multi-Family,1955,3.8,Division,auction,58,2026-05-18,468844,50,"Beautiful multi-family in the heart of Division, Portland. Hardwood floors throughout. Built in 1955. Recently updated kitchen and bathrooms.",https://picsum.photos/seed/029f6c01/800/600,45.613253,-122.733274
536b568a-426d-4735-9889-93a6975cf97c,8614 Roach Points,Miami,FL,33152,600397,1,1.0,833,Single Family,1995,2.0,Coral Gables,active,32,,,0,"Beautiful single family in the heart of Coral Gables, Miami. Top-rated school district. Close to restaurants and shops. Features 833 sqft of living space.",https://picsum.photos/seed/ba3de8af/800/600,25.72986,-80.280913
77cfabcc-a984-40c2-8a2c-8d1e99892138,1768 Paul Rapids,Portland,OR,97218,384213,1,1.5,953,Single Family,2008,9.3,Pearl District,active,8,,,0,Charming single family with 1.5 bathrooms in desirable Pearl District. Features 953 sqft of living space. Recently updated kitchen and bathrooms. Hardwood floors throughout.,https://picsum.photos/seed/d7d62659/800/600,45.475494,-122.653163
91df741b-b21a-4db1-8659-90c06749bb84,1869 Alison Cove,New York,NY,10034,1014765,4,4.0,2052,Single Family,1969,6.6,Astoria,pending,113,,,50,"Beautiful single family in the heart of Astoria, New York. Built in 1969. Open floor plan with natural light. Top-rated school district.",https://picsum.photos/seed/de8111ed/800/600,40.703615,-74.040361
a16228e2-387a-4cb9-a635-d19e351eacb9,5961 Moran Valley,Seattle,WA,98193,550500,2,2.0,1719,Condo,1943,1.4,Ballard,active,103,,,250,Stunning 2-bedroom condo located in Ballard. Recently updated kitchen and bathrooms. Built in 1943. Hardwood floors throughout. Top-rated school district. Open floor plan with natural light.,https://picsum.photos/seed/7cf50710/800/600,47.568533,-122.34493
09357262-b06e-480c-9691-1a4d54b965f2,5695 Audrey Rue,Miami,FL,33118,590486,5,6.0,2599,Townhouse,1950,1.5,Miami Beach,auction,110,2026-05-17,430647,300,"Beautiful townhouse in the heart of Miami Beach, Miami. Top-rated school district. Private backyard and patio. Close to restaurants and shops. Hardwood floors throughout. Recently updated kitchen and bathrooms.",https://picsum.photos/seed/f717d241/800/600,25.789811,-80.251548
d84be1ad-115d-4fbc-bd16-cc237badec77,4016 Fleming Mews,Seattle,WA,98137,668014,4,4.0,2244,Townhouse,2021,9.3,Capitol Hill,pending,29,,,300,Stunning 4-bedroom townhouse located in Capitol Hill. Private backyard and patio. Close to restaurants and shops. Top-rated school district. Hardwood floors throughout. Built in 2021.,https://picsum.photos/seed/f74d5b1b/800/600,47.644844,-122.338793
0ac1f116-a5d8-46ca-bd32-fc0c5165ba65,819 Li Flat,New York,NY,10056,751879,1,1.0,820,Condo,1923,3.6,Park Slope,active,19,,,300,"Beautiful condo in the heart of Park Slope, New York. Hardwood floors throughout. Recently updated kitchen and bathrooms. Built in 1923.",https://picsum.photos/seed/0fa3e021/800/600,40.739067,-73.923458
67d2beff-15d9-4354-b73b-eb7cd1eb95f7,1918 Brandon Park,Denver,CO,80258,561030,3,4.0,1866,Townhouse,1945,3.4,LoDo,active,108,,,200,Stunning 3-bedroom townhouse located in LoDo. Open floor plan with natural light. Hardwood floors throughout. Built in 1945.,https://picsum.photos/seed/90321386/800/600,39.643399,-104.95481
6e325df9-d165-41ba-bf7e-e4fdf1a597b3,4106 Williams Harbor,Nashville,TN,37264,393192,5,7.5,3343,Townhouse,1935,2.7,East Nashville,active,102,,,450,"Beautiful townhouse in the heart of East Nashville, Nashville. Hardwood floors throughout. Close to restaurants and shops. Open floor plan with natural light. Recently updated kitchen and bathrooms. Built in 1935.",https://picsum.photos/seed/85323fe6/800/600,36.201571,-86.81801
0f067b51-914b-4547-95f7-f3c783f9e392,8442 Wilson Mission,Nashville,TN,37292,193077,2,3.0,1819,Condo,1982,8.1,East Nashville,sold,11,,,200,Stunning 2-bedroom condo located in East Nashville. Top-rated school district. Built in 1982. Recently updated kitchen and bathrooms. Private backyard and patio.,https://picsum.photos/seed/c14499a4/800/600,36.096187,-86.803977
25edd48e-a87a-4ea1-b0d7-298d8080f5f0,9461 Carolyn Ramp,San Francisco,CA,94158,1819703,4,4.5,3193,Multi-Family,2001,2.9,Marina,auction,5,2026-06-03,1329202,0,"Beautiful multi-family in the heart of Marina, San Francisco. Open floor plan with natural light. Top-rated school district. Features 3,193 sqft of living space. Built in 2001.",https://picsum.photos/seed/3eb4017d/800/600,37.75408,-122.4582
a62367d6-278b-4922-9804-abe7ef92bcfe,4573 Young Brooks,Boston,MA,02150,548914,3,3.0,1701,Townhouse,1985,5.1,Jamaica Plain,active,55,,,450,Stunning 3-bedroom townhouse located in Jamaica Plain. Recently updated kitchen and bathrooms. Hardwood floors throughout. Built in 1985.,https://picsum.photos/seed/b453fa02/800/600,42.341891,-70.997999
e3f73c14-3b6e-4056-ae5a-fdcb71053b20,5494 Smith Tunnel,Miami,FL,33135,493637,1,1.0,1118,Single Family,1989,3.0,Brickell,active,119,,,100,Stunning 1-bedroom single family located in Brickell. Open floor plan with natural light. Built in 1989. Private backyard and patio. Top-rated school district.,https://picsum.photos/seed/161371c2/800/600,25.669356,-80.251739
329459de-7285-433a-8ced-17766d115ee0,7873 Rhonda Haven,Chicago,IL,60636,197911,3,3.0,2137,Townhouse,1971,1.1,Hyde Park,sold,84,,,250,"Beautiful townhouse in the heart of Hyde Park, Chicago. Top-rated school district. Private backyard and patio. Hardwood floors throughout. Recently updated kitchen and bathrooms. Features 2,137 sqft of living space.",https://picsum.photos/seed/18b9cfe9/800/600,41.951193,-87.684284
d9775b79-726e-4cd9-ade3-5779b90d0926,5910 Meagan Lodge,Nashville,TN,37273,271188,3,3.5,2302,Condo,1991,6.2,The Gulch,active,18,,,250,Stunning 3-bedroom condo located in The Gulch. Close to restaurants and shops. Hardwood floors throughout. Private backyard and patio.,https://picsum.photos/seed/1de1874d/800/600,36.123814,-86.734039
64b0bc13-d828-4fcb-9b89-40addf95d854,1143 Paula Pines,New York,NY,10060,653387,1,1.0,687,Townhouse,1939,8.2,SoHo,auction,81,2026-06-04,516943,450,Charming townhouse with 1.0 bathrooms in desirable SoHo. Hardwood floors throughout. Top-rated school district. Features 687 sqft of living space. Recently updated kitchen and bathrooms.,https://picsum.photos/seed/d88fb48e/800/600,40.808834,-74.065159
c6366d09-0f10-4b98-81c0-ba5d86da5fe1,8691 Matthew Brook,Seattle,WA,98147,1102194,3,2.5,1842,Multi-Family,1942,5.4,Capitol Hill,auction,78,2026-05-11,804436,0,"Beautiful multi-family in the heart of Capitol Hill, Seattle. Features 1,842 sqft of living space. Recently updated kitchen and bathrooms. Open floor plan with natural light. Top-rated school district.",https://picsum.photos/seed/51dbd154/800/600,47.583379,-122.390922
4dbcdc99-7ea5-4909-95d1-b63790eebf37,7878 Terry Village,Chicago,IL,60665,388574,4,4.5,2090,Townhouse,1988,1.6,Logan Square,pending,96,,,300,"Beautiful townhouse in the heart of Logan Square, Chicago. Open floor plan with natural light. Top-rated school district. Built in 1988. Close to restaurants and shops. Hardwood floors throughout.",https://picsum.photos/seed/c2be9e29/800/600,41.804086,-87.688665
40770e1e-a4d2-4c23-a825-b540f47ff936,5781 Cummings Harbor,Miami,FL,33168,229435,1,1.0,930,Condo,1987,5.4,Coral Gables,auction,113,2026-05-20,180432,200,Charming condo with 1.0 bathrooms in desirable Coral Gables. Open floor plan with natural light. Hardwood floors throughout. Top-rated school district. Built in 1987. Close to restaurants and shops.,https://picsum.photos/seed/48f8e40a/800/600,25.719282,-80.115601
5db46a7a-b3d3-40a4-ab67-c512015ce45b,8910 Molina Locks,Denver,CO,80245,507639,3,3.5,2081,Condo,2009,7.3,Highlands,active,51,,,150,Stunning 3-bedroom condo located in Highlands. Built in 2009. Private backyard and patio. Close to restaurants and shops. Top-rated school district. Hardwood floors throughout.,https://picsum.photos/seed/27695a94/800/600,39.687139,-104.916192
9f1f074e-0c61-4d6d-a51d-d8e8e40be2f4,6344 Angela Island,New York,NY,10069,1271815,1,1.5,1024,Single Family,1972,2.9,Astoria,active,33,,,50,"Stunning 1-bedroom single family located in Astoria. Close to restaurants and shops. Top-rated school district. Built in 1972. Hardwood floors throughout. Features 1,024 sqft of living space.",https://picsum.photos/seed/e5f3b182/800/600,40.627439,-73.967103
426793b4-88c7-4472-937e-63a425d88b5a,2894 Salazar Lock,Austin,TX,78730,285028,2,2.0,1722,Townhouse,1979,6.9,Downtown Austin,active,71,,,500,"Beautiful townhouse in the heart of Downtown Austin, Austin. Built in 1979. Top-rated school district. Recently updated kitchen and bathrooms. Features 1,722 sqft of living space. Hardwood floors throughout.",https://picsum.photos/seed/06a6ec2b/800/600,30.195251,-97.679015
49e2e112-816e-48d2-bb75-52296304465f,8666 Horton Motorway,Chicago,IL,60691,432989,1,1.5,903,Single Family,1965,1.3,Wicker Park,active,92,,,0,Charming single family with 1.5 bathrooms in desirable Wicker Park. Built in 1965. Hardwood floors throughout. Private backyard and patio. Recently updated kitchen and bathrooms. Close to restaurants and shops.,https://picsum.photos/seed/eb13d1e1/800/600,41.821333,-87.590452
387a76b6-1de6-48f5-bdb8-c5dc9382eb8d,1135 Allison Crossing,Austin,TX,78795,332519,4,5.5,2499,Single Family,1950,4.8,South Lamar,active,3,,,0,"Beautiful single family in the heart of South Lamar, Austin. Recently updated kitchen and bathrooms. Private backyard and patio. Built in 1950.",https://picsum.photos/seed/8ad455cf/800/600,30.234623,-97.80467
59725013-75c7-4285-b5de-3ef501f0c7fb,296 Pace Cove,Austin,TX,78750,649350,3,3.0,1797,Multi-Family,1989,3.1,Mueller,pending,16,,,100,"Stunning 3-bedroom multi-family located in Mueller. Top-rated school district. Built in 1989. Features 1,797 sqft of living space.",https://picsum.photos/seed/fe688143/800/600,30.201924,-97.762672
98ddd63b-c292-4685-93ed-b4b97a52a424,2277 Jeffrey Views,Miami,FL,33198,294060,2,2.0,1562,Townhouse,2011,3.3,Miami Beach,auction,22,2026-05-09,232301,450,Stunning 2-bedroom townhouse located in Miami Beach. Private backyard and patio. Close to restaurants and shops. Top-rated school district.,https://picsum.photos/seed/600a150d/800/600,25.79728,-80.097327
c0603c20-ee3e-4a46-9672-3d8937b3955f,3973 Dominic Islands,Portland,OR,97249,484042,5,7.0,3540,Single Family,1985,7.3,Alberta Arts,pending,76,,,50,"Charming single family with 7.0 bathrooms in desirable Alberta Arts. Hardwood floors throughout. Open floor plan with natural light. Features 3,540 sqft of living space. Private backyard and patio.",https://picsum.photos/seed/5cb0a9b4/800/600,45.53847,-122.599044
4e2a093e-c6b3-4d96-b045-5deb2023c016,8633 Perez Corners,Chicago,IL,60615,307714,2,2.0,1227,Townhouse,1950,8.9,Hyde Park,pending,95,,,250,"Stunning 2-bedroom townhouse located in Hyde Park. Open floor plan with natural light. Close to restaurants and shops. Features 1,227 sqft of living space. Built in 1950. Recently updated kitchen and bathrooms.",https://picsum.photos/seed/ca797d78/800/600,41.833725,-87.60108
1e8c88f3-8979-498e-bce0-abc05dd0e121,2418 Jennifer Valleys,Nashville,TN,37291,224810,1,1.5,840,Condo,1997,2.7,Germantown,auction,42,2026-05-26,157570,500,"Beautiful condo in the heart of Germantown, Nashville. Built in 1997. Top-rated school district. Open floor plan with natural light.",https://picsum.photos/seed/ce3ecaf5/800/600,36.076697,-86.843107
9cc58374-95c2-4f52-b839-22040c2ce6ca,3399 Cabrera Plain,San Francisco,CA,94191,635669,1,1.0,998,Condo,1941,2.6,Mission District,active,55,,,300,Stunning 1-bedroom condo located in Mission District. Built in 1941. Recently updated kitchen and bathrooms. Hardwood floors throughout. Private backyard and patio.,https://picsum.photos/seed/ef3de551/800/600,37.73552,-122.404116
e4ea064e-8eb9-4bc5-97a3-dd38be196019,8901 Sarah Ways,Chicago,IL,60686,479160,5,6.0,3384,Multi-Family,2024,4.4,Logan Square,active,98,,,0,"Beautiful multi-family in the heart of Logan Square, Chicago. Recently updated kitchen and bathrooms. Top-rated school district. Hardwood floors throughout. Private backyard and patio. Close to restaurants and shops.",https://picsum.photos/seed/0be76277/800/600,41.929872,-87.545494
f4028166-6a1e-4c84-98be-d5a63ece7d04,8151 Jordan Tunnel,Portland,OR,97257,400047,5,5.5,3119,Townhouse,2011,9.2,Division,active,20,,,150,Stunning 5-bedroom townhouse located in Division. Close to restaurants and shops. Private backyard and patio. Recently updated kitchen and bathrooms. Hardwood floors throughout.,https://picsum.photos/seed/4cd1a608/800/600,45.417767,-122.67826
d574c57a-ca0e-4dd3-9ab7-e08997369c37,8449 Daniel Hollow,Portland,OR,97254,485135,5,4.0,2358,Townhouse,1969,7.9,Sellwood,active,25,,,350,"Charming townhouse with 4.0 bathrooms in desirable Sellwood. Private backyard and patio. Top-rated school district. Features 2,358 sqft of living space. Hardwood floors throughout.",https://picsum.photos/seed/7179a183/800/600,45.569454,-122.628085
60b87f79-7ab8-4738-aa3a-95e3cadb728a,2744 Joseph Spurs,New York,NY,10094,493869,1,1.5,799,Condo,2009,5.1,Brooklyn Heights,active,78,,,250,"Beautiful condo in the heart of Brooklyn Heights, New York. Built in 2009. Private backyard and patio. Close to restaurants and shops.",https://picsum.photos/seed/32cc271d/800/600,40.663658,-73.98557
72492f20-f295-499d-a315-43d4722ca0c5,6843 Nelson Extension,New York,NY,10049,1397665,1,1.0,912,Multi-Family,1941,3.7,Astoria,active,89,,,0,Charming multi-family with 1.0 bathrooms in desirable Astoria. Built in 1941. Private backyard and patio. Open floor plan with natural light.,https://picsum.photos/seed/8282ba0d/800/600,40.744497,-74.029442
630dae61-2d15-4eaf-a7bf-0dfd3b6ad053,2895 Brandy Crest,Nashville,TN,37265,237956,1,1.5,960,Condo,1920,1.9,East Nashville,pending,1,,,450,"Beautiful condo in the heart of East Nashville, Nashville. Recently updated kitchen and bathrooms. Private backyard and patio. Built in 1920. Close to restaurants and shops.",https://picsum.photos/seed/745d7ce0/800/600,36.167692,-86.750696
89d9d0f1-033d-4cc0-b783-dfdc8533fd3e,7320 Luis Drive,Portland,OR,97262,358179,1,1.0,803,Condo,1945,8.3,Pearl District,sold,24,,,300,Charming condo with 1.0 bathrooms in desirable Pearl District. Built in 1945. Close to restaurants and shops. Private backyard and patio. Top-rated school district. Features 803 sqft of living space.,https://picsum.photos/seed/cd5335e8/800/600,45.46707,-122.597945
bc86bcc6-52a1-4407-ac48-5b864eeb9891,785 Walsh Skyway,Miami,FL,33184,501091,3,2.5,1744,Single Family,1950,7.8,Coconut Grove,pending,87,,,100,"Beautiful single family in the heart of Coconut Grove, Miami. Features 1,744 sqft of living space. Hardwood floors throughout. Open floor plan with natural light.",https://picsum.photos/seed/7ff455b3/800/600,25.81206,-80.290355
ef6f79bb-e968-4ec6-ad25-588f5eed6317,5933 Aimee Garden,San Francisco,CA,94117,1272218,4,5.5,2848,Townhouse,1967,3.2,SOMA,active,105,,,400,"Stunning 4-bedroom townhouse located in SOMA. Features 2,848 sqft of living space. Hardwood floors throughout. Private backyard and patio.",https://picsum.photos/seed/cbbf21ae/800/600,37.807916,-122.443713
d330957b-6a53-41e3-a5dd-ba675535952a,372 Stanley Harbors,New York,NY,10051,398100,1,1.5,870,Condo,1967,6.9,Astoria,auction,88,2026-05-21,309418,300,Charming condo with 1.5 bathrooms in desirable Astoria. Features 870 sqft of living space. Close to restaurants and shops. Private backyard and patio. Recently updated kitchen and bathrooms.,https://picsum.photos/seed/1a3488e4/800/600,40.613426,-73.978385
595c14e4-6941-4a09-90bb-bab612e1f315,9469 Barton Orchard,Portland,OR,97276,385258,2,2.5,1260,Condo,1974,7.3,Division,auction,110,2026-05-09,312113,350,"Charming condo with 2.5 bathrooms in desirable Division. Features 1,260 sqft of living space. Built in 1974. Hardwood floors throughout. Top-rated school district. Recently updated kitchen and bathrooms.",https://picsum.photos/seed/e7c09e0a/800/600,45.536635,-122.636012
eee14bb1-7e1d-4cad-bec3-fd45157d3943,2725 Christopher Trafficway,San Francisco,CA,94113,1193252,4,6.0,3060,Multi-Family,1950,7.8,Mission District,active,22,,,0,Stunning 4-bedroom multi-family located in Mission District. Open floor plan with natural light. Built in 1950. Private backyard and patio. Recently updated kitchen and bathrooms.,https://picsum.photos/seed/a33491f6/800/600,37.692786,-122.432421
8c0db089-4914-47e5-93f2-d2559add74cb,9306 Dawson Knoll,Portland,OR,97258,616190,5,6.0,3501,Single Family,2021,6.2,Hawthorne,active,120,,,0,"Stunning 5-bedroom single family located in Hawthorne. Hardwood floors throughout. Recently updated kitchen and bathrooms. Features 3,501 sqft of living space.",https://picsum.photos/seed/6af91867/800/600,45.428133,-122.709755
9b8c0b17-2257-40d8-bd40-d24071ba9e47,8875 Donna Street,Miami,FL,33185,394553,3,4.0,1747,Single Family,1993,3.8,Coral Gables,active,110,,,0,"Beautiful single family in the heart of Coral Gables, Miami. Close to restaurants and shops. Recently updated kitchen and bathrooms. Top-rated school district. Built in 1993.",https://picsum.photos/seed/18db0106/800/600,25.809084,-80.22964
e44a1122-f371-468a-9e05-9de5143eb7fd,662 Heather Club,San Francisco,CA,94195,561467,1,1.0,996,Condo,1938,7.1,SOMA,active,64,,,250,Charming condo with 1.0 bathrooms in desirable SOMA. Open floor plan with natural light. Top-rated school district. Private backyard and patio. Features 996 sqft of living space.,https://picsum.photos/seed/c9252a68/800/600,37.795193,-122.490226
185054a7-0542-4ef6-80f1-88e578ed9675,3033 Brown Bridge,Miami,FL,33116,783160,2,2.5,1414,Multi-Family,2023,7.5,Coral Gables,active,106,,,0,"Stunning 2-bedroom multi-family located in Coral Gables. Close to restaurants and shops. Recently updated kitchen and bathrooms. Private backyard and patio. Built in 2023. Features 1,414 sqft of living space.",https://picsum.photos/seed/05c50e54/800/600,25.848587,-80.246786
aaa24445-7841-4071-b4da-942fc599a552,2244 Taylor Lights,San Francisco,CA,94122,1386997,4,6.0,2800,Multi-Family,1929,3.5,Marina,sold,37,,,0,"Stunning 4-bedroom multi-family located in Marina. Features 2,800 sqft of living space. Close to restaurants and shops. Private backyard and patio. Recently updated kitchen and bathrooms. Hardwood floors throughout.",https://picsum.photos/seed/9624b0f3/800/600,37.815122,-122.409798
71f187a7-9bfd-4f72-b942-f779938acec6,6269 Tony Junctions,Chicago,IL,60628,239672,2,2.0,1255,Condo,1947,1.1,Wicker Park,sold,84,,,200,"Stunning 2-bedroom condo located in Wicker Park. Recently updated kitchen and bathrooms. Features 1,255 sqft of living space. Close to restaurants and shops. Top-rated school district. Hardwood floors throughout.",https://picsum.photos/seed/c5be0726/800/600,41.913764,-87.532103
7496186e-40df-4043-af94-8837f3514c8c,6250 Lisa Trace,Chicago,IL,60632,277857,5,6.5,3386,Single Family,2000,2.1,Logan Square,active,5,,,0,Charming single family with 6.5 bathrooms in desirable Logan Square. Built in 2000. Close to restaurants and shops. Hardwood floors throughout. Private backyard and patio. Recently updated kitchen and bathrooms.,https://picsum.photos/seed/e30bb36b/800/600,41.838638,-87.610569
1fb23579-adf8-4874-b963-25fa79eb57c2,7205 Hodges Inlet,Portland,OR,97271,283712,1,1.0,1110,Townhouse,1948,9.9,Pearl District,auction,74,2026-05-21,210247,200,"Stunning 1-bedroom townhouse located in Pearl District. Recently updated kitchen and bathrooms. Features 1,110 sqft of living space. Top-rated school district. Close to restaurants and shops. Built in 1948.",https://picsum.photos/seed/c06fc437/800/600,45.574069,-122.742181
db711df4-ce85-4688-8e03-17950f0d85bb,3060 Rios Vista,New York,NY,10025,862781,5,6.5,3805,Single Family,1928,7.4,Park Slope,auction,69,2026-05-31,688287,0,"Charming single family with 6.5 bathrooms in desirable Park Slope. Recently updated kitchen and bathrooms. Features 3,805 sqft of living space. Open floor plan with natural light. Hardwood floors throughout. Top-rated school district.",https://picsum.photos/seed/3951e0f0/800/600,40.654293,-73.974284
0e6b4919-0766-43ec-9d80-ade5a9bb13ea,101 Robin Forges,Boston,MA,02194,521984,2,2.5,1375,Single Family,1952,5.6,Back Bay,active,16,,,0,"Beautiful single family in the heart of Back Bay, Boston. Features 1,375 sqft of living space. Open floor plan with natural light. Recently updated kitchen and bathrooms. Close to restaurants and shops.",https://picsum.photos/seed/cc75854c/800/600,42.368985,-71.07429
